,id,slug,status,title,property_type,purchase_type,bedrooms,bathrooms,area,city,state,photo_url,lister,lat,lng,price,createdat,price_per_sq_ft,trends
0,23421,fully-converted-diesel-school-bus-home,active,Fully-Converted Diesel School Bus Home,Converted Bus,purchase,2.0,1.0,314.0,Brandon,South Dakota,http://res.cloudinary.com/tinyhouselistings/image/upload/IMG_3484_wdqkqa_i1vyas.jpg,138526,43.6,-96.59,37000.0,2021-02-08,117.83,
1,23419,new-luxurious-full-kitchen-full-bath-26,active,NEW  Luxurious - Full Kitchen - Full Bath 26',Tiny House,purchase,2.0,1.0,221.0,Oregon City,Oregon,http://res.cloudinary.com/tinyhouselistings/image/upload/T-1.13_zc3pbn.jpg,167930,45.33,-122.57,99000.0,2021-02-08,447.96,
2,23418,beautiful-new-container-home-for-sale,active,Beautiful New Container Home For Sale,Container Home,purchase,1.0,1.0,320.0,Liberty City,Texas,http://res.cloudinary.com/tinyhouselistings/image/upload/0DD0497B-9C07-4AD7-B4CA-B981E3DB4840_doqtnr_wewg1a.jpg,138526,32.38,-94.87,65000.0,2021-02-07,203.12,
3,23417,3-bed-2-bath-tiny-duplex,active,3 Bed 2 Bath Tiny Duplex,Tiny House,purchase,3.0,2.0,399.0,Kennesaw,Georgia,http://res.cloudinary.com/tinyhouselistings/image/upload/IMG_6182_y5uebn.jpg,135075,34.0,-84.62,27800.0,2021-02-07,69.67,
4,23416,beautiful-off-grid-skoolie-ready-to-roam,active,Beautiful Off Grid Skoolie (Ready To Roam),Converted Bus,purchase,1.0,1.0,143.0,The Hills,Texas,http://res.cloudinary.com/tinyhouselistings/image/upload/02BE7833-DA25-47F4-AA03-256B6865A980_ryvv2i_fqdj1l.jpg,138526,30.31,-97.94,52500.0,2021-02-07,367.13,Boho
5,23413,converted-skoolie-with-solar-power-ready-for-your-tiny-home-dreams-crown-bus,active,Converted Skoolie with Solar Power - Ready for your Tiny Home Dreams - Crown Bus,Converted Bus,purchase,0.0,0.0,210.0,Hayward,California,http://res.cloudinary.com/tinyhouselistings/image/upload/Exterior_2_rhdn2b.jpg,167864,37.64,-122.11,27000.0,2021-02-07,128.57,Boho
6,23404,eco-friendly-tiny-house-with-modern-farmhouse-design,active,Eco-friendly Tiny House with Modern Farmhouse Design,Tiny Eco House,purchase,1.0,1.0,150.0,santa barbara,California,http://res.cloudinary.com/tinyhouselistings/image/upload/IMG_8710-1_uanizy.jpg,167055,34.43,-119.72,72000.0,2021-02-05,480.0,Farmhouse
7,23403,waco-tiny-house-for-sale,active,Waco Tiny House for Sale,Tiny House,purchase,0.0,1.0,192.0,Lorena,Texas,http://res.cloudinary.com/tinyhouselistings/image/upload/fa2465cd-228a-43f8-b4da-6ca3b2076094_rjw9a8.jpg,167700,31.39,-97.21,25000.0,2021-02-05,130.21,
8,23399,the-basecamp-28ft-luxury-cedar-tiny-house-on-wheels-furnished-ready-to-move,active,THE BASECAMP - 28ft Luxury Cedar Tiny House on Wheels - Furnished - Ready to Move! ,Tiny House On Wheels,rent,1.0,1.0,192.0,Birmingham,Alabama,http://res.cloudinary.com/tinyhouselistings/image/upload/Tacoma_OFFROAD_38_oynpsf.jpg,71874,33.34,-86.78,69000.0,2021-02-04,359.38,Treehouse
9,23398,40-container-home-that-can-stay-on-land,active,"40’ Container- Walnut shelves, Ambrosia Maple Walls, Slate Tile Floor",Container Home,purchase,1.0,1.0,280.0,Urbana,Illinois,http://res.cloudinary.com/tinyhouselistings/image/upload/Jared_-_D25C8531-A5B6-4667-8420-5CA2BFC1A11C_tlwify.jpg,138526,40.138306,-88.161651,34500.0,2021-02-04,123.21,
10,23396,8x24-tiny-home-on-wheels-new-and-amazing,active,8x24 Tiny Home on Wheels NEW and Amazing,Tiny House On Wheels,purchase,0.0,1.0,192.0,Salt Lake City,Utah,http://res.cloudinary.com/tinyhouselistings/image/upload/IMG_6786_bjaq5g.jpg,167602,40.68,-111.82,55000.0,2021-02-04,286.46,
11,23392,beautiful-100-eco-tiny-home,active,28’ Beautiful 100% Eco Tiny Home,Tiny Eco House,purchase,3.0,1.0,240.0,Ventura,California,http://res.cloudinary.com/tinyhouselistings/image/upload/35B8F863-5256-4D95-97C6-D7FFAF868154_nleew4.jpg,138699,34.28,-119.29,89000.0,2021-02-03,370.83,Eco
13,23388,tiny-house-custom-built,active,Tiny House Custom Built ,Tiny House,purchase,1.0,1.0,602.0,Winslow,Arkansas,http://res.cloudinary.com/tinyhouselistings/image/upload/3DB5C811-EF67-435C-BD3A-F3F1E61E4313_nvw5xz.jpg,20387,35.862833,-94.196334,92000.0,2021-02-03,152.82,
14,23385,wearesimplehomes,active,Wearesimplehomes/Oz,Tiny House,purchase,1.0,1.0,256.0,San Luis Obispo,California,http://res.cloudinary.com/tinyhouselistings/image/upload/6DCBEEF6-280D-4D8B-9FA6-5F67E1A99162_wcycjz.jpg,167452,35.28,-120.66,72000.0,2021-02-02,281.25,
15,23381,240-sq-ft-tiny-home-w-full-bathroom-kitchenette-delivery-inst-included,active,"200 sq. ft. Tiny Home w/ Full Bathroom, Kitchenette - Delivery & Inst. Included",Tiny House,model,1.0,1.0,200.0,San Diego,California,http://res.cloudinary.com/tinyhouselistings/image/upload/IMG_0230_mhp6hj.jpg,167353,32.75,-117.21,24000.0,2021-02-02,120.0,
16,23380,fully-furnished-luxury-24-foot-tiny-house-on-wheels,active,Fully Furnished Luxury- Lot Rent Option or Ship!,Tiny House,purchase,1.0,1.0,190.0,Gainesville,Florida,http://res.cloudinary.com/tinyhouselistings/image/upload/20170815-4-840x630_tqjiuc_eltgj4.jpg,138526,29.62,-82.38,55000.0,2021-02-01,289.47,
17,23379,charming-16-tiny-home-recently-renovated,active,Charming 16' Tiny Home---Recently Renovated!,Tiny House,purchase,0.0,1.0,136.0,Houston,Texas,http://res.cloudinary.com/tinyhouselistings/image/upload/Photo_Shoot_B_13_zktg8j.jpg,141393,29.757561,-95.36525,37500.0,2021-02-01,275.74,
18,23375,very-affordable-tiny-house-on-wheels-mobile,active,"Cedar/Metal Siding, Tankless Water Heater, W/D Combo",Tiny House On Wheels,purchase,1.0,1.0,170.0,Taylors,South Carolina,http://res.cloudinary.com/tinyhouselistings/image/upload/7F5EFD87-36AF-4DC6-B9F3-D56D3180C501_y86pun_gnktss_d3dsik.jpg,138526,35.07,-82.37,44000.0,2021-01-31,258.82,
19,23373,beautifully-renovated-36ft-long-5th-wheel,active,Beautifully renovated 36ft long 5th wheel ,Rv,purchase,1.0,1.0,398.0,Portland ,Oregon,http://res.cloudinary.com/tinyhouselistings/image/upload/08DC580A-28CE-4F42-9857-19440F138780_j0itvv.jpg,167182,45.51,-122.61,32500.0,2021-01-31,81.66,
20,23371,ob-1,active,Modern Tiny Home OB-1,Tiny House,purchase,0.0,1.0,200.0,Palm Beach,Florida,http://res.cloudinary.com/tinyhouselistings/image/upload/6AC4342D-8C53-4F7F-A08C-626B9D48F3EC_grc7hn.jpg,51327,27.190719,-80.236942,39000.0,2021-01-31,195.0,
21,23370,the-ultimate-adventure-bus-ready-for-adventure,active,"The Ultimate Adventure Bus, Ready For Adventure",Converted Bus,purchase,1.0,1.0,201.0,Richmond,Virginia,http://res.cloudinary.com/tinyhouselistings/image/upload/Bus_in_front_of_Sequoias_kauhoh_jq2ro4.jpg,138526,37.51,-77.69,39900.0,2021-01-31,198.51,
22,23368,tiny-house-on-wheels-7f0dd638-7ee4-428a-ab39-ecd847a0dac5,active,Tiny House on Wheels,Tiny House On Wheels,purchase,0.0,1.0,108.0,LOVELAND,Colorado,http://res.cloudinary.com/tinyhouselistings/image/upload/download_6_ebb4sn.jpg,167134,40.41,-105.01,48500.0,2021-01-31,449.07,
23,23356,spacious-2-bedroom-tiny-house,active,Spacious 2 bedroom tiny house!,Tiny House,purchase,2.0,1.0,238.0,FRESNO,California,http://res.cloudinary.com/tinyhouselistings/image/upload/20171019_144854_tkfqmc.jpg,23477,36.81,-119.87,59500.0,2021-01-28,250.0,
24,23354,new-tiny-w-standing-height-bedroom,active,New tiny w/ standing height bedroom!,Tiny House,purchase,2.0,1.0,302.0,Fresno,California,http://res.cloudinary.com/tinyhouselistings/image/upload/Photo_Jan_22_12_20_41_PM_bhssic.jpg,23477,36.81,-119.87,96500.0,2021-01-28,319.54,
25,23353,tiny-house-on-wheels-for-sale-in-florida,active,Tiny House on Wheels for Sale in Florida,Tiny House On Wheels,purchase,0.0,1.0,200.0,Fort Lauderdale ,Florida,http://res.cloudinary.com/tinyhouselistings/image/upload/IMG_5964_hsnujv.jpg,166947,26.2,-80.15,45500.0,2021-01-28,227.5,
26,23348,darling-caboose-style-home-with-eco-features,active,"Darling, Caboose-Style home with eco-features",Converted Railcar,purchase,1.0,1.0,390.0,Van Alstyne,Texas,http://res.cloudinary.com/tinyhouselistings/image/upload/20201128_120939_pbhxet.jpg,132236,33.4215,-96.5772,50000.0,2021-01-28,128.21,Eco
27,23342,20-container-home-the-dripping-springs-model,active,"20' Container Home | ""The Dripping Springs"" Model",Container Home,purchase,0.0,1.0,135.0,Austin,Texas,http://res.cloudinary.com/tinyhouselistings/image/upload/Dripping_Springs_1_vkhk8w.jpg,166043,30.13,-97.64,18500.0,2021-01-27,137.04,
28,23340,32-beautiful-custom-tiny-smart-home-tiny_house,active,32' Beautiful Custom Tiny Smart Home,Tiny House,purchase,2.0,1.0,256.0,Menifee,California,http://res.cloudinary.com/tinyhouselistings/image/upload/A7R07879_res6vo_kl1erh.jpg,138526,33.68,-117.17,95000.0,2021-01-27,371.09,
29,23338,beautiful-bus-conversion,active,Beautiful Bus Conversion,Converted Bus,purchase,1.0,1.0,100.0,Los Angeles,California,http://res.cloudinary.com/tinyhouselistings/image/upload/20201027_110448_vaanav_hetsiv.jpg,138526,34.03,-118.19,34000.0,2021-01-27,340.0,
30,23336,perfect-pnw-tiny-house-living,active,Perfect PNW tiny house living!  ,Tiny House,purchase,1.0,1.0,336.0,Anacortes,Washington,http://res.cloudinary.com/tinyhouselistings/image/upload/20210122_130050_ccp1wi.jpg,166799,48.52,-122.61,47040.0,2021-01-26,140.0,
31,23335,dream-tiny-home-12x20-perfect,active,Dream Portable Tiny Home 12x20 Perfect ,Tiny House On Wheels,purchase,1.0,0.0,240.0,Montrose,Colorado,http://res.cloudinary.com/tinyhouselistings/image/upload/EA30801D-1777-4EC9-B464-662E8C301118_drvgpg.jpg,166783,38.37429,-107.798528,22000.0,2021-01-26,91.67,Boho
32,23330,artistic-and-modern-26-dual-loft-tiny-house,active,Artistic and Modern 26' Dual Loft Tiny House,Tiny House,purchase,0.0,1.0,221.0,Spokane,Washington,http://res.cloudinary.com/tinyhouselistings/image/upload/IMG_1620_vr8fha_sp9nuk.jpg,141393,47.66,-117.42,59500.0,2021-01-26,269.23,Modern
33,23328,20-x-8-tiny-home-19-350-by-holy-ground-real-estate,active,"20' x 8' Tiny Home $19,350",Tiny House,model,1.0,1.0,160.0,Thornton,Colorado,http://res.cloudinary.com/tinyhouselistings/image/upload/A0201EF6-C8B7-48C7-964C-9DAB36C314D5_hqtgfh.jpg,157948,39.96,-104.99,19350.0,2021-01-25,120.94,
34,23327,tiny-house-trailer-8x22-2-5200-axles,active,"Tiny House Trailer, 8x22', (2)5200# axles",Converted Bus,purchase,0.0,0.0,176.0,Cedarpines Park,California,http://res.cloudinary.com/tinyhouselistings/image/upload/Copy_of_image1_gkl0fm.jpg,166669,34.250015,-117.32091,4100.0,2021-01-25,23.3,
35,23320,elegant-and-simple-converted-school-bus-5-sleeping-spots-and-an-overhauled-engine-converted_bus,active,Elegant and simple converted school bus: 5 sleeping spots and an overhauled engine,Converted Bus,purchase,1.0,0.0,360.0,Delran,New Jersey,http://res.cloudinary.com/tinyhouselistings/image/upload/0_wgnr9g_mhyiyg.jpg,138526,40.01,-74.96,20000.0,2021-01-24,55.56,
36,23315,tiny_house_trailer-mobile,active,18’x8’ and 13’ tall with lots of windows - Unfinished ,Tiny House On Wheels,purchase,0.0,1.0,144.0,Basalt,Colorado,http://res.cloudinary.com/tinyhouselistings/image/upload/4AE43EC1-42BA-463A-A70A-BADA13E893B3_rpesce.jpg,166480,39.37,-107.03,26500.0,2021-01-23,184.03,
37,23310,stunning-42-luxury-tiny-house-for-sale,active,Stunning 42' Luxury Tiny House For Sale,Tiny House,purchase,2.0,1.0,336.0,Austin,Texas,http://res.cloudinary.com/tinyhouselistings/image/upload/IMG_3365_txaayc_grweew.jpg,138526,30.19,-97.93,99000.0,2021-01-22,294.64,
39,23307,super-affordable-super-nice-tiny-house-delivered-to-you,active,"Super Affordable, Queen Loft, Flush toilet - Delivery Available",Tiny House,purchase,1.0,1.0,128.0,Taylors,South Carolina,http://res.cloudinary.com/tinyhouselistings/image/upload/3CBCCA93-B9CA-4B47-AA6C-86E39C34FB14_iifv8h_ewwojm.jpg,138526,35.07,-82.37,22000.0,2021-01-22,171.88,
40,23300,unfinished-12x36-on-mobile-home-frame,active,Unfinished 12x36 on mobile home frame,Tiny House On Wheels,purchase,1.0,2.0,432.0,Joshua,Texas,http://res.cloudinary.com/tinyhouselistings/image/upload/5298F508-4EB6-4660-9421-4393268482FC_cze9be.jpg,166328,32.46,-97.38,20000.0,2021-01-21,46.3,
41,23298,our-lockdown-project,active,Our lockdown project,Tiny House,purchase,1.0,1.0,160.0,Mesa,Arizona,http://res.cloudinary.com/tinyhouselistings/image/upload/05E184D0-38D9-4859-8B97-987268F95BB8_ta725v.jpg,165306,33.43,-111.72,37000.0,2021-01-21,231.25,
42,23294,almost-finished-bus-conversion,active,Converted bus.,Converted Bus,purchase,3.0,1.0,224.0,Fort worth,Texas,http://res.cloudinary.com/tinyhouselistings/image/upload/688D67B2-05AC-4E0D-845F-7A5590C2ECA8_zepgbw.jpg,166226,32.91,-97.32,29500.0,2021-01-20,131.7,
43,23293,20-container-home-the-cleveland-model,active,"20' Container Home | ""The Cleveland"" Model",Container Home,purchase,0.0,1.0,160.0,Austin,Texas,http://res.cloudinary.com/tinyhouselistings/image/upload/Cleveland_1_m4dboc.jpg,166043,30.13,-97.64,18450.0,2021-01-20,115.31,
44,23290,beautiful-tiny-cabin-modular-home,active,Beautiful tiny cabin (modular home),Cabin,purchase,0.0,1.0,264.0,Morganton,North Carolina,http://res.cloudinary.com/tinyhouselistings/image/upload/IMG_20210120_092320_on24ub.jpg,100890,35.74,-81.72,42708.0,2021-01-20,161.77,Modern
45,23289,off-grid-ready-204-ft-loft-tiny-house-and-shed,active,Off grid ready 204 ft + loft Tiny House and shed,Tiny House,purchase,1.0,1.0,204.0,Pacifica ,California,http://res.cloudinary.com/tinyhouselistings/image/upload/FD2D95A3-1EF2-4C40-A59B-035F572199F4_am4tx2.jpg,166216,37.65,-122.49,55000.0,2021-01-20,269.61,
47,23278,a-tiny-adjustment,active,A Tiny Adjustment - open to offers,Tiny House,purchase,0.0,1.0,192.0,Smyrna,Georgia,http://res.cloudinary.com/tinyhouselistings/image/upload/D9263531-B055-4F5B-A862-C3420FD48883_y0chpt.jpg,41150,33.89,-84.53,36500.0,2021-01-19,190.1,
48,23276,40-container-home-bunkhouse-for-preppers,active,40' Container Home Bunkhouse for Preppers,Container Home,purchase,2.0,1.0,320.0,Elwood,Utah,http://res.cloudinary.com/tinyhouselistings/image/upload/DSC00504_kaqwzd.jpg,85440,41.685344,-112.142047,86500.0,2021-01-19,270.31,
49,23275,nomad-tiny-home-ready-for-your-adventures,active,Nomad Tiny Home Ready for Your Adventures,Tiny House,purchase,1.0,1.0,192.0,Bayfield,Colorado,http://res.cloudinary.com/tinyhouselistings/image/upload/3_entrance_ggcddv.jpg,24128,37.24,-107.59,65000.0,2021-01-19,338.54,
50,23272,beneath-the-bark-handcrafted-23-custom-tiny-home,active,Beneath the Bark- Handcrafted 23' Custom Tiny Home,Tiny House,purchase,0.0,1.0,184.0,Incline Valley,Nevada,http://res.cloudinary.com/tinyhouselistings/image/upload/MAK_2563_mb3gmj_fynkk0.jpg,141393,39.24516,-119.947816,89000.0,2021-01-19,483.7,
51,23270,40-dog-nose-skoolie,active,40' dog-nose skoolie,Rv,purchase,1.0,1.0,200.0,Colorado Springs,Colorado,http://res.cloudinary.com/tinyhouselistings/image/upload/IMG_4650_gsongv.jpg,166078,38.82,-104.76,38500.0,2021-01-18,192.5,
52,23269,20-container-home-the-beaumont-model,active,"20' Container Home | ""The Beaumont"" Model",Container Home,purchase,0.0,1.0,135.0,Austin,Texas,http://res.cloudinary.com/tinyhouselistings/image/upload/Beaumont_1_y0opim.jpg,166043,30.13,-97.64,19450.0,2021-01-18,144.07,
53,23465,beautiful-30-tiny-home-never-lived-in-tiny_house,active,"Beautiful 30' Tiny Home, never lived in",Tiny House,purchase,2.0,1.0,340.0,Carpinteria,California,http://res.cloudinary.com/tinyhouselistings/image/upload/e9600ab2d7d34f51aceb74fc6869d78f_u3lsf9_a3lbad_zuouer.jpg,138526,34.4,-119.52,78000.0,2021-02-17,229.41,
54,23464,20-ft-high-cube-container-guest-house-container_home-mobile,active,Beautiful 20' Container Home Ready To Be Shipped,Container Home,purchase,1.0,1.0,160.0,Redlands,California,http://res.cloudinary.com/tinyhouselistings/image/upload/Screen_Shot_2021-01-19_at_8.50.27_AM_sdczlt_d0wakh.jpg,138526,34.07,-117.21,44000.0,2021-02-17,275.0,
55,23462,tiny-cedar-cabin-on-wheels,active,Tiny cedar cabin on wheels,Tiny House On Wheels,purchase,1.0,1.0,224.0,Portland,Oregon,http://res.cloudinary.com/tinyhouselistings/image/upload/58FA8056-AC15-4DF1-BFA8-BFDF81432EB4_ay09qz.jpg,48812,45.49,-122.58,65000.0,2021-02-17,290.18,Treehouse
56,23461,custom-designed-mobile-tiny-home-off-grid-ready,active,Custom Designed Mobile Tiny Home - Off Grid Ready,Tiny House On Wheels,purchase,1.0,1.0,256.0,Durham,North Carolina,http://res.cloudinary.com/tinyhouselistings/image/upload/Tiny_Home_1_olqjwk.jpg,168350,35.99,-78.87,80000.0,2021-02-16,312.5,
57,23460,cute-cabin-in-the-woods,active,Cute tiny house in the woods ,Tiny House,purchase,1.0,1.0,160.0,UNITY,New Hampshire,http://res.cloudinary.com/tinyhouselistings/image/upload/FB_IMG_1613440844931_leksoe.jpg,133196,43.37,-72.34,90000.0,2021-02-16,562.5,
59,23450,ready-to-move-32ft-tiny-house-yorba,pending_changes,Ready to Move - 32ft Tiny House Yorba ,Tiny House,purchase,1.0,1.0,220.0,Greensboro,North Carolina,http://res.cloudinary.com/tinyhouselistings/image/upload/20201023_181743_xtg6xn.jpg,60842,36.09,-79.89,78500.0,2021-02-14,356.82,
60,23449,21-converted-skoolie-2004-ford-e-450,active,21' Converted Skoolie--2004 Ford E-450 ,Converted Bus,purchase,2.0,0.0,125.0,Croton on Hudson,New York,http://res.cloudinary.com/tinyhouselistings/image/upload/102C5612-C304-4253-8734-2AB432A82485-712-0000003C6C52F57B_eyrl5r_yrpj3m.jpg,141393,41.19,-73.88,56000.0,2021-02-14,448.0,
61,23446,cozy-tiny-home-tiny_house,active,Cozy Tiny Home,Tiny House,purchase,1.0,1.0,260.0,Ironton,Ohio,http://res.cloudinary.com/tinyhouselistings/image/upload/IMG_1301_yrwgky.jpg,168510,38.53,-82.67,30000.0,2021-02-14,115.38,
62,23442,399-sq-ft-park-model-tiny-house-with-parking,active,399 Sq ft Park Model/Tiny House with Parking!!!!!!,Tiny House,purchase,1.0,1.0,399.0,Conroe,Texas,http://res.cloudinary.com/tinyhouselistings/image/upload/A44DE8A9-6439-4E0C-BC42-6F636797E53D_mmwndf_lhbecq.jpg,141393,30.27,-95.42,66000.0,2021-02-12,165.41,
63,23441,custom-energy-efficient-tiny-house-off-grid-ready,active,Custom Energy Efficient Tiny House - Off Grid Ready,Tiny Eco House,purchase,0.0,1.0,192.0,Durham,North Carolina,http://res.cloudinary.com/tinyhouselistings/image/upload/2020-06-03_akndc8.jpg,168350,35.99,-78.87,59000.0,2021-02-12,307.29,Eco
65,23434,320-sf-new-construction-container-home,active,320 SF New Construction Container Home,Container Home,model,1.0,1.0,320.0,Redlands,California,http://res.cloudinary.com/tinyhouselistings/image/upload/Front_utcylp.jpg,153417,34.07,-117.21,76900.0,2021-02-10,240.31,
66,23433,20-plus-tiny-house-on-off-grid-ready,active,20' Plus Tiny House On/off grid ready,Tiny House,purchase,2.0,1.0,160.0,Hutchinson,Minnesota,http://res.cloudinary.com/tinyhouselistings/image/upload/20201116_145322_rbparj.jpg,29397,44.88,-94.38,36500.0,2021-02-10,228.12,
67,23429,gorgeous-32-long-rvia-certified-tiny-home,active,32' Gorgeous  RVIA Certified Tiny House,Converted Bus,purchase,3.0,1.0,368.0,Sacramento,California,http://res.cloudinary.com/tinyhouselistings/image/upload/IMG-4776_h9olat.jpg,168154,38.65,-121.12,86000.0,2021-02-10,233.7,
68,23428,tiny-home-anana,active,Tiny Home Anana,Tiny House,purchase,2.0,2.0,200.0,Kissimmee,Florida,http://res.cloudinary.com/tinyhouselistings/image/upload/46292E21-47DD-4D48-9094-40824FA0D741_zvfhoz.jpg,101650,28.33,-81.51,30000.0,2021-02-10,150.0,
69,23422,2020-perch-nest-roost12,active,2020 Perch&Nest Roost12,Rv,purchase,1.0,1.0,84.0,Winston Salem,North Carolina,http://res.cloudinary.com/tinyhouselistings/image/upload/Screen-Shot-2020-07-16-at-9.38.30-AM-1_sbytdx.jpg,22049,36.17,-80.28,20000.0,2021-02-08,238.1,
70,22990,edna-the-tiny-home-tiny_house,active,Edna the Tiny Home ,Tiny House,purchase,1.0,1.0,256.0,North Augusta,South Carolina,http://res.cloudinary.com/tinyhouselistings/image/upload/DSCF0700_pcu55n.jpg,156744,33.5,-81.96,70000.0,2020-12-08,273.44,
72,22957,beautiful-tiny-home-newly-built,active,Beautiful Tiny Home. Newly built.,Tiny House,purchase,1.0,1.0,270.0,SHIPSHEWANA,Indiana,http://res.cloudinary.com/tinyhouselistings/image/upload/DSCN1891_bsxr6w.jpg,161584,41.69,-85.58,44000.0,2020-12-05,162.96,
73,22955,farmhouse-container-home-container_home,active,Farmhouse Container Home,Container Home,purchase,1.0,1.0,240.0,Queen Creek,Arizona,http://res.cloudinary.com/tinyhouselistings/image/upload/IMG_2317_zziavb.jpg,103079,33.25,-111.63,74900.0,2020-12-04,312.08,Farmhouse
74,22951,gorgeous-20-tiny-house-wheels-tiny_house,active,FURNISHED NEW Deluxe Tiny w/ Skylights & Appliances,Tiny House,purchase,0.0,1.0,230.0,Webster,Massachusetts,http://res.cloudinary.com/tinyhouselistings/image/upload/Tiny_House_18_qj9wzi_novhuc.jpg,138526,42.05,-71.88,72000.0,2020-12-04,313.04,
75,22946,modern-butterfly-customize-to-your-liking,active,Modern Butterfly- Customize to Your Liking!,Tiny House,purchase,1.0,1.0,533.0,Madison,Wisconsin,http://res.cloudinary.com/tinyhouselistings/image/upload/IMG_7207_c3sdo4_pxomyw.jpg,141393,43.01,-89.29,66000.0,2020-12-04,123.83,Modern
76,22945,urban-oasis-one-level-tiny-house-personalize-to-your-taste,active,"Urban Oasis, One Level Tiny House- Personalize to Your Taste!",Tiny House,purchase,1.0,0.0,392.0,Madison,Wisconsin,http://res.cloudinary.com/tinyhouselistings/image/upload/IMG_7651_2_tkoykd_gd1slw.jpg,141393,43.01,-89.29,71500.0,2020-12-04,182.4,Urban
77,22940,31-premium-tiny-house-with-main-floor-bedroom,active,31' Premium Tiny House with Main Floor Bedroom,Tiny House,purchase,1.0,1.0,280.0,Bend,Oregon,http://res.cloudinary.com/tinyhouselistings/image/upload/Adventure_Abode-5009_df6kw4.jpg,57256,44.05,-121.32,115000.0,2020-12-03,410.71,
78,22939,modern-minim-tiny-house,active,Modern Minim Tiny House,Tiny House,purchase,0.0,1.0,288.0,Madison,Wisconsin,http://res.cloudinary.com/tinyhouselistings/image/upload/IMG_9879_eucaf3_ahhk2k.jpg,141393,43.01,-89.29,55000.0,2020-12-02,190.97,Minimalism
79,22938,2020-tumbleweed-cypress-30-tiny-home,active, 2020 Tumbleweed Cypress 30' Tiny Home!,Tiny House,purchase,2.0,1.0,255.0,Rapid City,South Dakota,http://res.cloudinary.com/tinyhouselistings/image/upload/Morrison_Tinyhome-12_reezhi.jpg,161298,44.1,-103.15,94900.0,2020-12-02,372.16,
80,23268,20-container-home-the-abilene-model,active,"20' Container Home | ""The Abilene"" Model",Container Home,purchase,0.0,1.0,135.0,Austin,Texas,http://res.cloudinary.com/tinyhouselistings/image/upload/Abilene_1_vxf8s1.jpg,166043,30.13,-97.64,17450.0,2021-01-18,129.26,
81,23265,2017-perch-nest-roost18-certified-travel-trailer-rv,active,2017 Perch&Nest Roost18 (Certified Travel Trailer RV),Converted Bus,purchase,1.0,1.0,135.0,Duck,West Virginia,http://res.cloudinary.com/tinyhouselistings/image/upload/download_qp4r1j.jpg,22049,38.62,-80.93,65000.0,2021-01-18,481.48,
82,23264,champion-homes-tiny-house,active,Champion Homes Tiny House ,Tiny House,purchase,1.0,1.0,399.0,Loveland ,Colorado,http://res.cloudinary.com/tinyhouselistings/image/upload/7FA8817B-8568-4E8D-A952-9549011C418E_alujfo.jpg,165983,40.41,-105.01,67900.0,2021-01-18,170.18,
83,23260,2015-homebuilt-tumbleweed,active,2015 homebuilt Tumbleweed,Tiny House,purchase,1.0,1.0,192.0,Redding,California,http://res.cloudinary.com/tinyhouselistings/image/upload/IMG_20210110_160202_i4gka9.jpg,53994,40.59,-122.35,60000.0,2021-01-17,312.5,
84,23256,bright-warm-and-spacious-maine-tiny-home,active,"Bright, warm  and spacious Maine tiny home!",Tiny House,purchase,1.0,1.0,223.0,Aurora,Maine,http://res.cloudinary.com/tinyhouselistings/image/upload/VUbWIOl1TxS5WQzFFEn0pQ_r2tmbn.jpg,165841,44.868295,-68.243953,36000.0,2021-01-16,161.43,
85,23246,tiny-duplex,active,Tiny Duplex,Tiny House,purchase,3.0,2.0,399.0,Kennesaw,Georgia,http://res.cloudinary.com/tinyhouselistings/image/upload/IMG_5741_Edited_zm7fqk.jpg,135075,34.0,-84.62,30600.0,2021-01-14,76.69,
86,23245,tiny-condo-affordable-unique-layout-tiny_house-stationary,active,"Tiny Condo - Affordable, Unique Layout",Tiny House,purchase,2.0,2.0,399.0,Kennesaw,Georgia,http://res.cloudinary.com/tinyhouselistings/image/upload/IMG_5938_1_k8pcwr.jpg,135075,34.028953,-84.650979,26500.0,2021-01-14,66.42,
87,23244,tiny-bungalow-399-sq-ft,active,Tiny Bungalow - 399 sq ft,Tiny House,purchase,3.0,1.0,399.0,Kennesaw,Georgia,http://res.cloudinary.com/tinyhouselistings/image/upload/Bungalow_Edited_2_ll0iau.jpg,135075,34.0,-84.62,30000.0,2021-01-14,75.19,
88,23243,unique-geometric-25-tiny-house,active,Unique Geometric 25' Tiny House,Tiny House,purchase,1.0,1.0,200.0,Newbury,Massachusetts,http://res.cloudinary.com/tinyhouselistings/image/upload/IMG_65371_y2kimd_owl4dp.jpg,141393,42.75,-70.9,88000.0,2021-01-14,440.0,
89,23241,custom-tiny-house-built-2019,active,Custom tiny house built 2019,Tiny House,purchase,1.0,1.0,144.0,Plattsburg ,Missouri,http://res.cloudinary.com/tinyhouselistings/image/upload/A464DDEA-E9D3-487E-B0FB-8AFBC1D47A4E_kfnzgl.jpg,165672,39.56,-94.46,24500.0,2021-01-14,170.14,
90,23239,the-haven-new-home-shipped-to-you,active,"Loft Design- 2 sleeping areas! double window, bluetooth capable",Tiny House,purchase,1.0,1.0,240.0,Waldorf,Maryland,http://res.cloudinary.com/tinyhouselistings/image/upload/C4CD63AB-1FA3-4993-889F-63A6DE79E2B6_xeqluq_jbysub.jpg,138526,38.63,-76.91,63500.0,2021-01-14,264.58,
91,23238,tiny-house-with-master-bedroom-2-lofts-tiny_house,active,Tiny House With Master Bedroom + 2 Lofts,Tiny House,purchase,1.0,1.0,240.0,Mountain Home,Idaho,http://res.cloudinary.com/tinyhouselistings/image/upload/IMG_9144_dcayzw_tk2l9i_w9oqoh.jpg,138526,43.13,-115.68,58900.0,2021-01-14,245.42,
92,23232,move-in-ready-2018-boxwood-tiny-home,active,Move -In Ready 2018 Boxwood Tiny Home,Tiny House,purchase,0.0,1.0,205.0,Rifle,Colorado,http://res.cloudinary.com/tinyhouselistings/image/upload/house4_l1xwnw.jpg,55972,39.52,-107.78,62000.0,2021-01-14,302.44,
93,23230,open-floor-lofted-cabin-she-shed-tiny-home,active,Open floor lofted Cabin/She Shed/Tiny home,Cabin,purchase,1.0,0.0,265.0,Tallmadge,Ohio,http://res.cloudinary.com/tinyhouselistings/image/upload/F0C4B582-2835-4C6A-9404-49AC77B063C4_qn3f75.jpg,165549,41.12,-81.45,19500.0,2021-01-13,73.58,
94,23226,20-modern-design-container-home,active,20' Modern Design Container Home - The Retreat,Container Home,purchase,1.0,1.0,160.0,Las Vegas,Nevada,http://res.cloudinary.com/tinyhouselistings/image/upload/Container_Home_The_Retreat_2021-01-20_at_2.15.27_PM_eic6an.jpg,25107,36.149636,-115.101703,58700.0,2021-01-13,366.88,Modern
95,23225,a-chef-s-dream-26-tiny-house,active,A Chef's Dream 28' Tiny House,Tiny House,purchase,1.0,1.0,238.0,Elkhart,Indiana,http://res.cloudinary.com/tinyhouselistings/image/upload/0821201428_1_agpdub_twpxxc.jpg,141393,41.68,-86.0,85000.0,2021-01-13,357.14,Boho
96,23223,28-aspen-by-homestead-tiny-house,active,28' Aspen Dual Lofts,Tiny House,model,2.0,1.0,224.0,Alpharetta,Georgia,http://res.cloudinary.com/tinyhouselistings/image/upload/client_2021_01_Jan_08_Jan_2021_1018_Branch_Dr_Photoshoot_5_LO-RES_002-1018_Branch_Dr_Photoshoot_5_LO-RES_kaqokw.jpg,92128,34.09,-84.27,62500.0,2021-01-12,279.02,
97,23222,sea-breeze-20-tiny-house,active,Sea Breeze 20' Tiny House,Tiny House,purchase,1.0,1.0,170.0,Thermal,California,http://res.cloudinary.com/tinyhouselistings/image/upload/hHouse_Lights_kpv6qc_cy7vgo.jpg,141393,33.57,-116.16,76500.0,2021-01-12,450.0,
98,23204,cedar-tree-house-amazing-condition,active,"Cedar tree house, amazing condition",Tiny Tree House,purchase,1.0,0.0,200.0,Houston,Texas,http://res.cloudinary.com/tinyhouselistings/image/upload/IMG_1369_jnrpol.jpg,165123,29.78,-95.36,5000.0,2021-01-10,25.0,Treehouse
100,23186,28-towable-modern-farmhouse-style-tiny-house,active,28’ Towable  Modern Farmhouse Style Tiny House,Tiny House,purchase,3.0,1.0,305.0,Greer,South Carolina,http://res.cloudinary.com/tinyhouselistings/image/upload/E8AA6A20-30D2-4274-BEC1-B37BCBB7A04F_gkzccu.jpg,164646,34.89,-82.22,82000.0,2021-01-06,268.85,Farmhouse
101,23183,tiny-home-module-available,active,Tiny Home Module Available,Tiny House,purchase,1.0,1.0,304.0,Boise,Idaho,http://res.cloudinary.com/tinyhouselistings/image/upload/IMG_7510_pohay9.jpg,147302,43.606751,-116.294766,56750.0,2021-01-05,186.68,
102,23182,functional-modern-tiny-house-living-with-tons-of-storage,active,Functional Modern Tiny House Living With TONS of Storage,Tiny House,purchase,2.0,1.0,224.0,Guthrie,Oklahoma,http://res.cloudinary.com/tinyhouselistings/image/upload/00_Exterior1_hndlx2_kvqrvp.jpg,138526,35.89,-97.42,73000.0,2021-01-05,325.89,Modern
103,23180,seder-build-tiny-house-on-wheels,active,Seder build Tiny House on wheels,Tiny House On Wheels,purchase,2.0,1.0,210.0,Oregon City,Oregon,http://res.cloudinary.com/tinyhouselistings/image/upload/20201109_151917_rlzqqn.jpg,164540,45.33,-122.57,62000.0,2021-01-05,295.24,
104,23176,affordable-nearly-complete-tiny-house-for-a-good-cause,active,"Affordable, Nearly-Complete Tiny House for a Good Cause",Tiny House,purchase,1.0,1.0,186.0,Hailey,Idaho,http://res.cloudinary.com/tinyhouselistings/image/upload/IMG_3711_vs5iqp.jpg,164505,43.52,-114.32,25000.0,2021-01-04,134.41,
105,23173,peaches-the-bus-is-ready-for-customization-converted_bus,active,Peaches the Bus is Ready for Customization,Converted Bus,purchase,1.0,0.0,180.0,Missoula,Montana,http://res.cloudinary.com/tinyhouselistings/image/upload/121792556_1014157039109257_3573425252729405954_n_llsomc_uzft2i.jpg,138526,46.89,-114.04,23000.0,2021-01-04,127.78,
106,23167,20-plug-in-off-grid-with-positive-energy,active,20' Plug In/ Off Grid with Positive Energy,Tiny Eco House,purchase,0.0,1.0,160.0,Walden,New York,http://res.cloudinary.com/tinyhouselistings/image/upload/IMG_3332_kaqzri.jpg,156798,41.56,-74.18,28000.0,2021-01-03,175.0,
107,23161,28-high-quality-affordable-cabin,active,"28’ High Quality, Affordable Cabin",Cabin,purchase,1.0,1.0,336.0,Dalton,Nebraska,http://res.cloudinary.com/tinyhouselistings/image/upload/IMG_2063_ibrfbf.jpg,164281,41.41288,-102.983798,30000.0,2021-01-02,89.29,
108,23159,incomplete-tiny-home-tiny_house_shell,active,Incomplete tiny home,Tiny House On Wheels,purchase,1.0,0.0,250.0,San Antonio,Texas,http://res.cloudinary.com/tinyhouselistings/image/upload/20200723_175216_isgpx7.jpg,63196,29.4,-98.56,5000.0,2021-01-02,20.0,
110,23154,sustainable-tiny-home-repurpose-opportunity,active,Sustainable Tiny Home Repurpose Opportunity ,Tiny House,purchase,1.0,1.0,520.0,Knoxville ,Tennessee,http://res.cloudinary.com/tinyhouselistings/image/upload/20200507_124026_arodqc.jpg,147302,35.99636,-83.9024,49500.0,2020-12-31,95.19,Eco
111,23148,move-in-ready-20-tiny-house-with-tons-of-storage,active,Move-in Ready 20' Tiny House with TONS of Storage,Tiny House,purchase,1.0,1.0,160.0,Carrollton,Georgia,http://res.cloudinary.com/tinyhouselistings/image/upload/IMG_7454_zsukti.jpg,163745,33.55,-85.07,27000.0,2020-12-30,168.75,
112,23147,titanium-tiny-home,active,Titanium Tiny Home,Rv,purchase,1.0,1.0,320.0,Bothell,Washington,http://res.cloudinary.com/tinyhouselistings/image/upload/IMG_8705_rgiyhj.jpg,163987,47.8,-122.21,42000.0,2020-12-30,131.25,
113,23093,modern-warm-new-tiny-house-on-wheels-for-sale-tiny_house,active,Modern warm new tiny house on wheels for sale,Tiny House On Wheels,purchase,1.0,1.0,172.0,Laredo,Texas,http://res.cloudinary.com/tinyhouselistings/image/upload/WhatsApp_Image_2020-06-22_at_13.41.32_fxv9me_i8k4kq.jpg,138526,27.904321,-99.44341,59500.0,2020-12-29,345.93,Modern
114,23089,affordable-shipping-container-homes,active,Affordable Shipping Container Homes,Container Home,purchase,2.0,1.0,320.0,San Antonio,Texas,http://res.cloudinary.com/tinyhouselistings/image/upload/IMG_7829_cfsknv.jpg,94665,29.47,-98.47,24000.0,2020-12-28,75.0,
115,23086,32ft-beautiful-sky-blue-tiny-home-perfect-for-grandparents-or-remote-learners,active,"32ft beautiful Sky Blue Tiny Home, Perfect for grandparents or remote learners!",Tiny House On Wheels,purchase,1.0,1.0,256.0,Seabeck,Washington,http://res.cloudinary.com/tinyhouselistings/image/upload/02600831-9BE3-41BB-8291-63DB0C3A3018_mvvits.jpg,163647,47.5,-122.65,85900.0,2020-12-27,335.55,
116,23084,primo-tiny-house-on-wheels-off-or-on-grid-ready,active,"Primo Tiny Home on Wheels, Off or On Grid Ready",Tiny House On Wheels,purchase,0.0,1.0,271.0,Ranchos de Taos,New Mexico,http://res.cloudinary.com/tinyhouselistings/image/upload/IMG_5581_yybyxh.jpg,140634,36.37,-105.6,125000.0,2020-12-27,461.25,
117,23075,mobile-custom-boutiques,active,Mobile Custom Boutiques,Tiny House On Wheels,model,0.0,0.0,176.0,Chehalis,Washington,http://res.cloudinary.com/tinyhouselistings/image/upload/IMG_4695_11507_800x_p9dkwe.jpg,20539,46.65,-122.96,35900.0,2020-12-23,203.98,
119,23071,20-luxury-container-home-off-grid-ready,active,20' Luxury Container Home- off grid ready ,Container Home,model,1.0,1.0,160.0,Houston,Texas,http://res.cloudinary.com/tinyhouselistings/image/upload/Inbox_Pic_1_uiqifl.jpg,163206,29.562053,-95.284703,64000.0,2020-12-21,400.0,
120,23070,the-cabana-stealthy-cabin-on-wheels,active,Stealthy Fully Functional Woodsy Cabin on Wheels,Tiny House On Wheels,purchase,1.0,1.0,112.0,Cazadero,California,http://res.cloudinary.com/tinyhouselistings/image/upload/Cabana_side_iemuvt.jpg,55130,38.58,-123.12,22000.0,2020-12-21,196.43,
121,23067,off-grid-skoolie-for-sale,active,Off Grid Skoolie For Sale,Converted Bus,purchase,1.0,1.0,200.0,Zimmerman,Minnesota,http://res.cloudinary.com/tinyhouselistings/image/upload/34A2894D-A077-4B61-AB1A-9B8B54438745_rpmlwt.jpg,163110,45.46,-93.62,45000.0,2020-12-20,225.0,
122,23058,the-12x32-lofted-barn-cabin-perfect-guest-house-tiny-home-cabin-getaway-etc,active,"The 12x32 Lofted Barn Cabin - Perfect Guest House, Tiny Home, Cabin, Getaway, ETC...! ",Cabin,purchase,1.0,1.0,384.0,Dawsonville,Georgia,http://res.cloudinary.com/tinyhouselistings/image/upload/image0-1_yexokf.jpg,162911,34.382811,-84.065346,24000.0,2020-12-18,62.5,Farmhouse
123,23056,the-dreamer-30-dual-loft-tiny-house,active,The Dreamer- 30' Dual Loft Tiny House,Tiny House,model,2.0,1.0,240.0,Moreno Valley,California,http://res.cloudinary.com/tinyhouselistings/image/upload/20181017_181621_gsuegu_orxrog.jpg,141393,33.89,-117.22,49900.0,2020-12-17,207.92,Boho
124,23055,the-horizon-28-dual-loft-tiny-home-brand-new,active,The Horizon- 28' Dual Loft Tiny Home--- Brand New,Tiny House,purchase,2.0,1.0,238.0,Moreno Valley,California,http://res.cloudinary.com/tinyhouselistings/image/upload/20201030_175118_jxaxzx_x6bqap.jpg,141393,33.89,-117.22,89900.0,2020-12-17,377.73,
126,23046,riverlink-homes-24,active,Modern Tiny House ADU - Guest House or Primary Resident,Tiny House,purchase,1.0,1.0,192.0,Seattle,Washington,http://res.cloudinary.com/tinyhouselistings/image/upload/RH-Exterior-Dark_besxam.jpg,162738,47.48,-122.27,85000.0,2020-12-16,442.71,
127,23044,16-off-grid-capable-unique-tiny-home,active,"16' Off-grid Capable, Unique Tiny Home ",Tiny House,purchase,0.0,1.0,128.0,Corpus Christi,Texas,http://res.cloudinary.com/tinyhouselistings/image/upload/IMG_20171212_173021482_HDR_y3m6jw.jpg,162730,27.7,-97.36,35000.0,2020-12-16,273.44,
128,23041,1-bed-1-bath-tiny-hacienda,active,1 bed 1 bath Tiny Hacienda,Tiny House,purchase,1.0,1.0,399.0,Kennessaw ,Georgia,http://res.cloudinary.com/tinyhouselistings/image/upload/IMG_4449_bk4xpa.jpg,135075,34.0,-84.62,27200.0,2020-12-16,68.17,Ranch
129,23026,unique-tiny-house-tiny_house,active,Unique Tiny House,Tiny House,purchase,1.0,1.0,300.0,Colorado Springs,Colorado,http://res.cloudinary.com/tinyhouselistings/image/upload/C88B31E2-8488-4680-A417-5C1AE0964281_bhifp7.jpg,120891,38.92,-104.82,32000.0,2020-12-14,106.67,
131,23011,almont-2-0-homestead-tiny-house,active,Almont 2.0 (Homestead Tiny House) ,Tiny House,purchase,1.0,1.0,128.0,Alpharetta,Georgia,http://res.cloudinary.com/tinyhouselistings/image/upload/016-_HI-RES_kv2quz.jpg,92128,34.09,-84.27,29500.0,2020-12-11,230.47,
132,23002,beautiful-vintage-school-bus-conversion-converted_bus,active,Beautiful vintage school bus conversion,Converted Bus,purchase,1.0,0.0,192.0,Durham,North Carolina,http://res.cloudinary.com/tinyhouselistings/image/upload/B3D9ED02-74F6-4B72-9F8B-2346BA26D17A_dmh69p_z3zhqu.jpg,138526,35.99,-78.9,25000.0,2020-12-10,130.21,Vintage
133,22997,tiny-cabin-ultimate-in-flexibility-expandability-and-technology,active,"Tiny Cabin - ultimate in flexibility, expandability and technology",Cabin,purchase,1.0,1.0,400.0,Greenbush,Minnesota,http://res.cloudinary.com/tinyhouselistings/image/upload/th13_jhryku.jpg,162090,48.7,-96.22,147000.0,2020-12-09,367.5,
134,22935,nordic-spruce-tiny-home-for-order-bath-loft-and-kitchen-complete,active,"NORDIC+SPRUCE tiny home for order. Bath, loft, and kitchen complete!",Tiny House,model,0.0,1.0,170.0,monterey,Tennessee,http://res.cloudinary.com/tinyhouselistings/image/upload/1R1ASgmfTJ6nS3ZbtH6oFw_yddl28.jpg,152315,36.14,-85.27,32000.0,2020-12-02,188.24,Treehouse
135,22931,the-turtle-dove-20-dual-loft-tiny-house,active,Turtle Dove- 20' Dual Loft Tiny House,Tiny House,purchase,2.0,1.0,160.0,Berkeley Springs,West Virginia,http://res.cloudinary.com/tinyhouselistings/image/upload/IMG_0289_khuryt.jpg,141393,39.62,-78.23,46000.0,2020-12-01,287.5,
136,22928,food-truck-style-concession-stand-shipping-container-kitchen-with-upper-deck-lounge,active,Food Truck style Concession Stand/Shipping Container Kitchen with Upper deck lounge,Container Home,purchase,0.0,0.0,140.0,new haven,Connecticut,http://res.cloudinary.com/tinyhouselistings/image/upload/3_Original_t1ylvg.jpg,102830,41.34,-73.08,20000.0,2020-12-01,142.86,
137,22918,affordable-off-grid-tiny-house-tiny_house-mobile,active,"Off-Grid Tiny- New wood burning stove, solar electricity, king size",Tiny House On Wheels,purchase,1.0,1.0,192.0,Colorado Springs,Colorado,http://res.cloudinary.com/tinyhouselistings/image/upload/IMG_0318_luqx2l_bitgyc.jpg,138526,38.99,-104.77,40000.0,2020-11-30,208.33,
138,22915,2006-laurel-creek-park-model-home,active,"""2006"" Laurel Creek Park Model Home (Like New)",Tiny House,purchase,1.0,1.0,350.0,Campo,California,http://res.cloudinary.com/tinyhouselistings/image/upload/IMG_2496_os5o9p.jpg,161059,32.7,-116.35,30000.0,2020-11-30,85.71,
139,22913,luxury-living-at-luxtiny-az-or-wherever-you-desire-to-live-tiny-in-luxury,active,"Luxury Living at LuxTiny, AZ (or WHEREVER you desire to live Tiny in LUXURY!)",Tiny House,purchase,1.0,1.0,200.0,Lakeside,Arizona,http://res.cloudinary.com/tinyhouselistings/image/upload/MY_THOW_PIC_1_trnbgl.jpg,115483,34.16,-109.98,82500.0,2020-11-30,412.5,
140,22906,new-tiny-house-for-sale-tiny_house-mobile,active,New Tiny House For Sale,Tiny House On Wheels,purchase,1.0,1.0,192.0,Portland,Oregon,http://res.cloudinary.com/tinyhouselistings/image/upload/Screen_Shot_2020-11-29_at_8.51.03_AM_ipzdrg.jpg,160985,45.53,-122.56,55000.0,2020-11-29,286.46,
141,22902,the-escape-artist-tiny_house,active,The Escape Artist,Tiny House,purchase,1.0,1.0,160.0,Columbia,South Carolina,http://res.cloudinary.com/tinyhouselistings/image/upload/IMG_1024_d8gxko.jpg,51937,33.99,-80.98,24500.0,2020-11-28,153.12,
142,22898,20ft-container-time-home-ready-for-off-grid-living,active,20ft container time home. Ready for off grid living. ,Container Home,purchase,0.0,1.0,160.0,Oakland,California,http://res.cloudinary.com/tinyhouselistings/image/upload/IMG_20201127_165708_owkq0l.jpg,160803,37.78693,-122.144634,30000.0,2020-11-28,187.5,
143,22884,container-cottage-insulated-sheetrocked-inside-and-stucco-insulated-out-the-feeling-of-home,active,Container cottage,Container Home,purchase,1.0,1.0,320.0,Pearland,Texas,http://res.cloudinary.com/tinyhouselistings/image/upload/127047336_203046771444285_4999074435744014040_n_e3onwu.jpg,160643,29.54,-95.27,17500.0,2020-11-25,54.69,
144,22883,2021-lo-pro-cabin,active,2021 Lo-Pro Cabin,Rv,purchase,1.0,1.0,74.0,Fife,Washington,http://res.cloudinary.com/tinyhouselistings/image/upload/IMG_2313_tezpf2.jpg,157977,47.24,-122.35,27950.0,2020-11-25,377.7,
145,22880,school-bus-converted-to-rv,active,"LUXURY Skoolie- LED Lighting, Built in Couch, TVs",Converted Bus,purchase,1.0,1.0,320.0,Tampa,Florida,http://res.cloudinary.com/tinyhouselistings/image/upload/00c0c_2SNvRE3TmcE_0ne0hv_1200x900_lgharb.jpg,138526,27.954621,-82.45742,60000.0,2020-11-25,187.5,
146,22878,32-industrial-farmhouse-tiny-home,active,32' Industrial Farmhouse Tiny Home,Tiny House,purchase,1.0,1.0,300.0,Weatherford,Texas,http://res.cloudinary.com/tinyhouselistings/image/upload/IMG_20201130_155456400_tj4jth.jpg,141116,32.73,-97.78,60000.0,2020-11-24,200.0,Urban
147,22877,beautiful-spacious-and-luxurious-46-tiny-home,active,"Beautiful, Spacious and Luxurious-46' Tiny Home",Tiny House,purchase,1.0,1.0,560.0,Boaz,Alabama,http://res.cloudinary.com/tinyhouselistings/image/upload/8E5C49C9-6FDA-43DD-80B5-0FE0F15EB6CD_1_105_c_ygvv2y_tqbrsc.jpg,141393,34.24238,-86.175646,89900.0,2020-11-24,160.54,
148,22875,new-frontier-tiny-home-alpha,active,New Frontier Tiny Home  - Alpha ,Tiny House,purchase,1.0,0.0,275.0,Bozeman ,Montana,http://res.cloudinary.com/tinyhouselistings/image/upload/14BE6685-29CC-489A-B9E4-A877C96336DA_tmvo6h.jpg,160188,45.68,-111.0447,120000.0,2020-11-24,436.36,
149,22869,20-off-grid-ready-tiny-home-built-with-high-quality-materials-tiny_house,active,20'  Off grid ready Tiny Home Built with High Quality  Materials ,Tiny House,purchase,1.0,1.0,160.0,Omaha,Nebraska,http://res.cloudinary.com/tinyhouselistings/image/upload/DSC02119_htkxs1.jpg,138526,41.21,-96.19,38000.0,2020-11-24,237.5,
150,22868,brand-new-unique-rv,active,Brand new  unique rv,Rv,purchase,0.0,0.0,77.0,Olympia,Washington,http://res.cloudinary.com/tinyhouselistings/image/upload/EFE423A0-7149-4E21-9255-D658BA4366A0_jjduda.jpg,22632,47.05,-122.9,25000.0,2020-11-23,324.68,
151,22866,the-rendezvous-27-gooseneck-tiny-house,active,The Rendezvous 27' Gooseneck Tiny House,Tiny House,purchase,2.0,1.0,216.0,Salida,Colorado,http://res.cloudinary.com/tinyhouselistings/image/upload/IMG_1872_tcdz92.jpg,141393,38.54,-106.01,69000.0,2020-11-23,319.44,
152,22865,tudor-timberframe-style-tinyhouse-shell,active,Tudor Timberframe style Tiny Home shell 24',Tiny House On Wheels,purchase,3.0,1.0,192.0,Hot Springs,South Dakota,http://res.cloudinary.com/tinyhouselistings/image/upload/IMG_20201127_123158_893_ga9i7m.jpg,116262,43.43,-103.48,16000.0,2020-11-23,83.33,
153,22861,sycamore-by-made-relative,active,"Natural Modern 30ft Tiny House ""Sycamore"" By Made Relative",Tiny House,purchase,2.0,1.0,320.0,Wichita,Kansas,http://res.cloudinary.com/tinyhouselistings/image/upload/sycamore-living-1_u7p47p.jpg,36848,37.784615,-97.110059,90000.0,2020-11-23,281.25,Treehouse
154,22857,spacious-luxurious-588-sq-ft-small-house-on-trailer-tiny_house,active,Spacious & Luxurious 588 Sq. Ft. Small House On Trailer,Converted Bus,purchase,1.0,1.0,588.0,Camano Island,Washington,http://res.cloudinary.com/tinyhouselistings/image/upload/4B845922-31F8-4D72-A2C7-16E40F33FBCC_gxt378.jpg,158607,48.23,-122.47,98000.0,2020-11-22,166.67,
155,22836,tiny-home-completely-renovated,active,Tiny Home Completely Renovated,Tiny House,purchase,1.0,2.0,290.0,San Angelo,Texas,http://res.cloudinary.com/tinyhouselistings/image/upload/01D4752C-B65F-4A0E-B84A-F1A00F3BD205_fb7sce.jpg,160000,31.45,-100.48,31500.0,2020-11-18,108.62,
156,22832,midcentury-modern-farmhouse-28-tiny-home,active,Mid-Century Modern Farmhouse- 28' Tiny Home,Tiny House,purchase,1.0,1.0,224.0,Paso Robles,California,http://res.cloudinary.com/tinyhouselistings/image/upload/DSCN2065_vbq42a.jpg,141393,35.64,-120.69,45900.0,2020-11-17,204.91,Vintage
158,22829,super-cute-remodeled-vintage-class-c-hornet,active,Super Cute Remodeled Vintage Class C Hornet ,Rv,purchase,1.0,1.0,216.0,Apple Valley ,Minnesota,http://res.cloudinary.com/tinyhouselistings/image/upload/0609E543-2A8C-4DC6-A5CC-397CC5B71DF9_flza45.jpg,120091,44.73,-93.22,45000.0,2020-11-17,208.33,Vintage
159,22822,custom-rvia-tumbleweed-cypress-24-tiny_house,active,Custom RVIA Tumbleweed Cypress 24',Converted Bus,purchase,1.0,1.0,192.0,Birmingham,Alabama,http://res.cloudinary.com/tinyhouselistings/image/upload/1_tat0au.jpg,114882,33.4,-86.81,55000.0,2020-11-16,286.46,
160,22819,20-tiny-house-model-with-sleeping-downstairs-tiny_house,active,20' Tiny House Model With Sleeping Downstairs,Tiny House,model,1.0,1.0,160.0,Spring City,Tennessee,http://res.cloudinary.com/tinyhouselistings/image/upload/28FEF517-DF7E-4092-BF1F-D58D03EF394E_vfd6z9_bvhonf_sud5uy.jpg,138526,35.65,-84.88,40000.0,2020-11-16,250.0,
161,22818,adorable-24-boho-cottage-model-tiny_house,active,Adorable 24' Boho Cottage Model,Tiny House,model,1.0,1.0,192.0,Spring City,Tennessee,http://res.cloudinary.com/tinyhouselistings/image/upload/2D108F4B-CC41-4CF1-8B82-F44159A6013E_tlgict_zt7mty_tscecw.jpg,138526,35.65,-84.88,50000.0,2020-11-16,260.42,Boho
162,22816,18-tiny-home-great-for-rental-or-full-time-living,active,18' Tiny Home great for rental or full time living,Tiny House,purchase,1.0,1.0,144.0,Bozeman,Montana,http://res.cloudinary.com/tinyhouselistings/image/upload/20200717_125746_skwhjx.jpg,159699,45.632671,-110.959389,36999.0,2020-11-16,256.94,
163,22814,family-bus,active,Family Bus,Converted Bus,purchase,1.0,1.0,300.0,Mesa,Arizona,http://res.cloudinary.com/tinyhouselistings/image/upload/39278283_2137067632993719_6847832424370405376_n_lc7gow.jpg,159662,33.4,-111.61,13000.0,2020-11-15,43.33,
164,22811,craftsman-style-tiny-home-tiny_house,active,Craftsman Style Tiny Home ,Tiny House,purchase,0.0,0.0,150.0,Grants Pass,Oregon,http://res.cloudinary.com/tinyhouselistings/image/upload/1943535C-81FE-4843-AC61-00172672388B_ipylfj.jpg,154159,42.44,-123.3,29500.0,2020-11-15,196.67,Craftsman-Style
165,22809,remodeled-2011-rv-home-with-4-bunks-and-1-master-suite,active,Remodeled 2011 RV Home with 4 bunks and 1 Master Suite,Rv,purchase,3.0,2.0,370.0,Anaheim ,California,http://res.cloudinary.com/tinyhouselistings/image/upload/4CF6E5FC-34D6-4BD8-8972-AA52F5073BAB_pjakgl.jpg,62681,33.8,-117.89,35000.0,2020-11-15,94.59,
166,22804,health-conscious-tiny-house-for-sale,active,Health Conscious Tiny House For Sale!,Tiny House,purchase,1.0,1.0,136.0,Mccloud,California,http://res.cloudinary.com/tinyhouselistings/image/upload/4459FF56-82C4-44CF-A301-41E7B7FAE77C_cuvg2d.jpg,159513,41.24,-122.02,22000.0,2020-11-14,161.76,
167,22803,magnolia-love,active,A Place You Call Home,Tiny House,purchase,2.0,1.0,500.0,Warrenton,North Carolina,http://res.cloudinary.com/tinyhouselistings/image/upload/121676613_1151972545196653_6488598622516928928_n_fmxfga.jpg,159503,36.43,-78.17,33000.0,2020-11-14,66.0,
168,22801,adventure-ready-remodeled-36-class-a-coachman,active,Adventure Ready- Remodeled 36' Class A Coachman,Rv,purchase,4.0,1.0,324.0,Georgetown,South Carolina,http://res.cloudinary.com/tinyhouselistings/image/upload/IMG_20201102_173841_ucyexp_uguovd.jpg,141393,33.37,-79.29,54000.0,2020-11-13,166.67,
169,22800,matilda-b-hotel-is-the-tiny-house,active,Matilda - B-Hotel is the new campervan,Converted Bus,purchase,2.0,1.0,200.0,las vegas,Nevada,http://res.cloudinary.com/tinyhouselistings/image/upload/4_qwfcvq.jpg,154998,36.27,-115.01,65000.0,2020-11-13,325.0,
170,22798,288-sq-foot-off-grid-tiny-house,active,288  Sq Ft Off Grid Tiny House includes all solar,Tiny House,purchase,1.0,1.0,288.0,PAMPLIN,Virginia,http://res.cloudinary.com/tinyhouselistings/image/upload/PAMPLIN_TINY_HOUSE_vltloo.jpg,159409,37.26,-78.66,22000.0,2020-11-13,76.39,
171,22790,tiny-mobile-retail-shoppe,active,Affordable Workspace to Transform for your needs!,Tiny House On Wheels,purchase,0.0,0.0,126.0,Lansing,New York,http://res.cloudinary.com/tinyhouselistings/image/upload/Exterior-2_uo98qn_hqsups.jpg,138526,42.59,-76.57,21500.0,2020-11-11,170.63,
172,22782,modern-european-style-container-house,active,Modern European Style Container House,Container Home,purchase,0.0,1.0,160.0,Long Beach,California,http://res.cloudinary.com/tinyhouselistings/image/upload/image00002_hafmjv.jpg,159088,33.770569,-118.18961,39000.0,2020-11-10,243.75,Modern
173,22779,flat-top-insulated-building-16x10-sheshed-cabin-office-man-cave,active,Flat Top Insulated Building 16x10 SheShed/Cabin/Office/Man Cave,Cabin,purchase,0.0,0.0,160.0,Commerce,California,http://res.cloudinary.com/tinyhouselistings/image/upload/IMG_3712_lkgdlw.jpg,114099,34.01,-118.16,4309.0,2020-11-10,26.93,
174,22773,the-cypress-shack,active,The Cypress Shack ,Tiny House,purchase,1.0,1.0,144.0,New Iberia ,Louisiana,http://res.cloudinary.com/tinyhouselistings/image/upload/123916554_122059079708574_1597377215147571586_o_pcwero.jpg,158967,30.0035,-91.8187,40000.0,2020-11-09,277.78,
175,22770,turtleback-shack,active,Turtleback Shack,Tiny House On Wheels,purchase,0.0,0.0,80.0,OVERLAND PARK,Kansas,http://res.cloudinary.com/tinyhouselistings/image/upload/image7_2_hrwbzx.jpg,158965,38.91,-94.67,25000.0,2020-11-09,312.5,
176,22755,stone-mountain-16-tiny-house,active,Stone Mountain 16' Tiny House,Tiny House,purchase,1.0,1.0,128.0,Stone Mountain,Georgia,http://res.cloudinary.com/tinyhouselistings/image/upload/Jeff_Kanagy_-_4FD7A334-0324-4054-B84A-2EFF36EC9B9A_ahnmk3.jpg,141393,33.79,-84.23,33000.0,2020-11-07,257.81,
177,22753,2019-elm-equator-tiny_house,active,2019. Elm Equator,Tiny House,purchase,2.0,1.0,260.0,Hastings,Florida,,149798,29.66,-81.29,79000.0,2020-11-07,303.85,
178,22740,new-tiny-house-lots-of-reclaimed-materials-included,active,NEW Tiny Home built by Contractor- Nice Loft & Barn Door,Tiny House,purchase,0.0,1.0,158.0,Greer,South Carolina,http://res.cloudinary.com/tinyhouselistings/image/upload/Ken_Titus_-_B742AF75-38C3-44CD-844B-6AC7493A7CFB_nvjgol.jpg,138526,34.89,-82.22,25000.0,2020-11-06,158.23,
179,22729,new-500-square-feet-tiny-house-in-waterfront-community,active,New 500 Square Feet Tiny House In Waterfront Community,Tiny House,purchase,1.0,1.0,498.0,Crescent City,Florida,http://res.cloudinary.com/tinyhouselistings/image/upload/RH1351A-kitchen-15_hpmzvp_sgijpe.jpg,138526,29.44,-81.51,49900.0,2020-11-04,100.2,
180,22728,custom-solar-tiny-home-tiny_house,active,Custom Solar Tiny Home,Tiny Eco House,purchase,1.0,1.0,325.0,Knoxville,Tennessee,http://res.cloudinary.com/tinyhouselistings/image/upload/IMG_5633_nbhlek.jpg,72584,36.01,-83.97,115000.0,2020-11-04,353.85,
181,22715,tiny-house-shell-san-diego-tiny_house,active,Tiny House Shell San Diego,Tiny House,purchase,1.0,1.0,220.0,San Diego,California,http://res.cloudinary.com/tinyhouselistings/image/upload/20200818_170155_jv6kie.jpg,24178,32.98,-117.09,18000.0,2020-11-03,81.82,
182,22699,beautiful-26-tiny-house-for-full-time-living,active,"Can fit King Size bed! Luxury 26' Tiny!  Mini-Split, Flush Toilet",Tiny House,purchase,1.0,1.0,180.0,Waterloo,Iowa,http://res.cloudinary.com/tinyhouselistings/image/upload/IMG_20191030_145919743_HDR_l2pcnp_d3kdzw.jpg,138526,42.46,-92.36,72000.0,2020-11-01,400.0,
183,22676,gooseneck-tiny-house-shell-metal-frame-roof,active,5th Wheel Tiny House Shell Metal Frame Roof Extras,Tiny House On Wheels,purchase,1.0,1.0,296.0,Kissimmee,Florida,http://res.cloudinary.com/tinyhouselistings/image/upload/IMG_1209_fkxiud.jpg,157773,28.3,-81.4,33000.0,2020-10-29,111.49,
184,22674,20-x-8-with-extended-loft,active,8’x20’ Sunny Tiny Home ,Tiny House,purchase,1.0,1.0,160.0,E. Falmouth,Massachusetts,http://res.cloudinary.com/tinyhouselistings/image/upload/Oct_31_2020_c.jpeg_wgxafq.jpg,157734,41.57,-70.59,59500.0,2020-10-29,371.88,
185,22666,south-austin-established-2017-park-model,active,South Austin - established 2017 Park Model ,Tiny House,purchase,2.0,2.0,951.0,Austin,Texas,http://res.cloudinary.com/tinyhouselistings/image/upload/2020-09-13-1826A-FrontOnStreet_enbh5n.jpg,129399,30.16,-97.79,67000.0,2020-10-28,70.45,
186,22655,urban-rv-tiny-home-upgraded-with-50-roku-alcatel-hotspot,active,"Urban RV Tiny Home upgraded with 50"" ROKU/Alcatel HOTSPOT",Converted Bus,purchase,0.0,1.0,180.0,Brooklyn,New York,http://res.cloudinary.com/tinyhouselistings/image/upload/s-l500_fdr6xl.jpg,157545,40.69,-73.92,19000.0,2020-10-27,105.56,Urban
187,22650,26-modern-farmhouse-tiny-home-on-wheels,active,26' Modern Farmhouse Tiny Home on Wheels,Tiny House On Wheels,purchase,1.0,1.0,208.0,kent,Washington,http://res.cloudinary.com/tinyhouselistings/image/upload/IMG_20180123_162835_mhbdxi.jpg,114583,47.36,-122.11,69000.0,2020-10-26,331.73,Farmhouse
188,22647,tiny-house-on-wheels-20-complete-208-sq-ft-100-off-grid-model-available,active,Tiny House on wheels 20' Complete 208 sq ft. (100% Off -Grid Model available),Tiny House On Wheels,model,1.0,1.0,208.0,Madison,Georgia,http://res.cloudinary.com/tinyhouselistings/image/upload/IMG_20180420_165054307_ttpkth.jpg,24507,33.6,-83.45,36999.0,2020-10-26,177.88,
189,22645,28-beautiful-white-tiny-home-farmhouse-interior,active,"28' Beautiful White Tiny Home, Farmhouse Interior. ",Tiny House,purchase,1.0,1.0,224.0,Sanford ,Florida,http://res.cloudinary.com/tinyhouselistings/image/upload/Tiny_House_urfene.jpg,87829,28.8,-81.34,74000.0,2020-10-26,330.36,Farmhouse
190,22643,blue-magnolia-28-tiny-house,active,Blue Magnolia 28' Tiny House,Tiny House,purchase,2.0,1.0,238.0,Durango,Colorado,http://res.cloudinary.com/tinyhouselistings/image/upload/IMG_1742_z1wz0u.jpg,141393,37.27,-107.88,82900.0,2020-10-26,348.32,
191,22634,new-24-tiny-home-with-loft-under-construction-will-be-finished-and-ready-for-delivery-this-week,active,"Awesome 24' Tiny Home,$25,000. Ready For You To Add Your Personal Touch",Tiny House,purchase,1.0,1.0,204.0,Royal Palm Beach,Florida,http://res.cloudinary.com/tinyhouselistings/image/upload/20201106_144922_spgthv.jpg,22543,26.698817,-80.218116,25000.0,2020-10-24,122.55,
192,22630,awesome-24ft-tiny-house-on-wheels-custom-rustic,active,Awesome 24FT Tiny House on Wheels (Custom/Rustic),Tiny House On Wheels,purchase,1.0,1.0,192.0,Fisher,West Virginia,http://res.cloudinary.com/tinyhouselistings/image/upload/20201020_174321_tw8opv.jpg,24895,39.08045,-79.030169,7700.0,2020-10-24,40.1,
193,22623,extremely-affordable-20-new-tiny-house,active,Extremely Affordable 20' New Tiny House,Tiny House,purchase,1.0,1.0,160.0,Boise,Idaho,http://res.cloudinary.com/tinyhouselistings/image/upload/IMG_8882_2_eupoae_oiwc2d.jpg,138526,43.66,-116.35,35000.0,2020-10-23,218.75,
194,22620,a-fresh-adventure-tiny_house,active,"Compost Toilet, Tiled Shower, PEX Plumbing",Tiny House,model,1.0,1.0,160.0,Spring City,Tennessee,http://res.cloudinary.com/tinyhouselistings/image/upload/7DD262D6-EFA3-4695-905E-5A1C38D65086_v2iwmj_s8bsvs.jpg,138526,35.65,-84.88,50000.0,2020-10-22,312.5,
195,22617,thekastleonwheels,active,2004 International 3800 S Series- Remodeled Skoolie,Converted Bus,purchase,1.0,1.0,325.0,Gilroy,California,http://res.cloudinary.com/tinyhouselistings/image/upload/Image_007_fkpepv.jpg,156980,37.02,-121.56,60000.0,2020-10-22,184.62,
196,22614,comfortable-cozy-24-tiny-house-entirely-off-grid,active,Comfortable Cozy 24' Tiny House (Entirely Off Grid),Tiny House,purchase,1.0,2.0,204.0,San Diego,California,http://res.cloudinary.com/tinyhouselistings/image/upload/121540867_1689281874582652_9038516698590852330_o_yw85tl_uehm1n.jpg,138526,32.7,-117.05,67000.0,2020-10-22,328.43,
197,22602,8x24-tiny-house-ready-for-the-simple-life,active,"Tiny  w/Loft- Compost Toilet & Built-in Stairs, Storage",Tiny House,purchase,2.0,1.0,192.0,Linden,Tennessee,http://res.cloudinary.com/tinyhouselistings/image/upload/IMG_20200808_142049_nd9kpx_uryqo5.jpg,138526,35.62,-87.84,45000.0,2020-10-21,234.38,
198,22597,8x24-custom-tiny-house,active,8x24 Custom Tiny House,Tiny House,purchase,0.0,1.0,192.0,Clarkdale,Arizona,http://res.cloudinary.com/tinyhouselistings/image/upload/14490_cikepq.jpg,156816,34.84,-112.15,99000.0,2020-10-21,515.62,
199,22581,custom-gooseneck-tiny-house-tiny_house,active,"Modern Tiny- RVIA, heated floor, full size Fridge",Converted Bus,purchase,1.0,1.0,272.0,San Antonio,Texas,http://res.cloudinary.com/tinyhouselistings/image/upload/Amber_Rummel_-_8F20BD3F-9A0D-43CB-9F69-B04ACE599036_nd6xrw.jpg,138526,29.43,-98.44,66000.0,2020-10-19,242.65,
200,22580,custom-20-pnw-tiny-house-tiny_house,active,Custom 20' PNW Tiny House,Tiny House,purchase,1.0,1.0,160.0,Twisp,Washington,http://res.cloudinary.com/tinyhouselistings/image/upload/IMG_6797_unlxel_faepul.jpg,135778,48.43,-120.16,61999.0,2020-10-18,387.49,
201,22556,luxurious-tiny-with-attention-to-details,active,Luxurious Tiny House With Attention To All Details,Tiny House,purchase,2.0,1.0,300.0,Hortonville,Wisconsin,http://res.cloudinary.com/tinyhouselistings/image/upload/5DS_5826_ocqgbq_vfwgux.jpg,138526,44.34,-88.63,90000.0,2020-10-16,300.0,
202,22553,24-modern-tiny-house-with-loft-tiny_house,active,PRICE DROP! Must sell. Moving special- 24' Modern w/loft,Tiny House,purchase,1.0,1.0,206.0,Las Vegas,Nevada,http://res.cloudinary.com/tinyhouselistings/image/upload/IMG_5027_huu6yf_nnmdca.jpg,138526,36.17,-115.14,58000.0,2020-10-16,281.55,Modern
203,22545,fully-remodeled-tiny-house-on-wheels,active,Fully Remodeled Tiny House on Wheels,Tiny House On Wheels,purchase,1.0,1.0,90.0,Miami,Florida,http://res.cloudinary.com/tinyhouselistings/image/upload/A7ED6A5A-1D24-46B4-829D-CB67E6C6357C_bsepon.jpg,156063,25.8,-80.2,15900.0,2020-10-15,176.67,
204,22540,away-we-go-16-modern-tiny-house,active,Away We Go- 16' Modern Tiny House,Tiny House,purchase,1.0,1.0,136.0,Crystal River,Florida,http://res.cloudinary.com/tinyhouselistings/image/upload/82271353-75F6-4695-B184-C03DE8E00C71_mactty_fcncxw.jpg,141393,28.902219,-82.59278,22500.0,2020-10-14,165.44,Modern
205,22539,denver-unit,active,Denver Unit ,Container Home,model,1.0,1.0,240.0,Las Vegas ,Nevada,http://res.cloudinary.com/tinyhouselistings/image/upload/4Y5A9196_zvslne.jpg,25107,36.15,-115.15,79900.0,2020-10-14,332.92,
207,22536,1-bed-1-bath-tiny-house-164-total-sf-by-stouderhouse,active,1 bed/1 bath Tiny House - 164 total sf by StouderHouse,Tiny House,purchase,1.0,1.0,128.0,Salado,Texas,http://res.cloudinary.com/tinyhouselistings/image/upload/IMG_1563_nbvzza.jpg,155924,30.96,-97.53,44000.0,2020-10-14,343.75,
208,22533,brand-new-25-park-model,active,Brand new  25' Park Model ,Tiny House,purchase,1.0,1.0,187.0,Salem,Oregon,http://res.cloudinary.com/tinyhouselistings/image/upload/DSCN0478_neqjs9.jpg,155852,44.95,-123.05,30500.0,2020-10-13,163.1,
209,22530,castle-tree-house,active,Castle Tree House ,Tiny Tree House,model,0.0,1.0,160.0,Las Vegas ,Nevada,http://res.cloudinary.com/tinyhouselistings/image/upload/RealEstate_NoLogo_Ryan_HDR_6_v1_dngnoq.jpg,25107,36.15,-115.15,58500.0,2020-10-13,365.62,
210,22529,gray-s-unit,active,Gray's Unit,Container Home,model,1.0,1.0,160.0,Las Vegas,Nevada,http://res.cloudinary.com/tinyhouselistings/image/upload/RealEstate_NoLogo_CustomTJ_HDR_12_v1_ujsd3e.jpg,25107,36.15,-115.15,58900.0,2020-10-13,368.12,
211,22522,two-story-cabin-hunting-lounge-_german-style_post-beam,active,Two-story CABIN (HUNTING LOUNGE)_German style_Post & Beam ,Cabin,purchase,1.0,0.0,400.0,Woodruff,South Carolina,http://res.cloudinary.com/tinyhouselistings/image/upload/h10_2_jccibp.jpg,155726,34.87,-82.1,10000.0,2020-10-13,25.0,
212,22520,learning-pod-study-pod-can-be-easily-converted-into-a-tiny-home,active,Learning Pod / Study Pod - Can be easily converted into a Tiny Home,Tiny House,purchase,0.0,0.0,96.0,Lakewood,Colorado,http://res.cloudinary.com/tinyhouselistings/image/upload/IMG_3178_coqsd9.jpg,155702,39.675229,-105.085669,15000.0,2020-10-12,156.25,
213,22505,rustic,active,Rustic and Charming 26' Tiny House,Tiny House,purchase,1.0,1.0,208.0,Indian Hills,Colorado,http://res.cloudinary.com/tinyhouselistings/image/upload/IMG_0761_xjeefj_rlaccl.jpg,141393,39.62,-105.23,62500.0,2020-10-10,300.48,
214,22503,self-built-eco-conscious-tiny-home-on-wheels-tiny_house-mobile,active,Self-Built Eco-Conscious Tiny Home on Wheels,Tiny House On Wheels,purchase,1.0,1.0,180.0,Bloomington,Indiana,http://res.cloudinary.com/tinyhouselistings/image/upload/DSC_0384_urxioy.jpg,139177,39.16,-86.54,33250.0,2020-10-10,184.72,Eco
215,22499,on-off-grid-mobile-bathroom-other,active,On/Off Grid Mobile Bathroom,Tiny House On Wheels,purchase,0.0,1.0,30.0,Parker ,Colorado,http://res.cloudinary.com/tinyhouselistings/image/upload/BE2A55A4-330D-4DA7-9598-C3BE45DF3841_nia5rz.jpg,25373,39.51,-104.77,14900.0,2020-10-09,496.67,
216,22498,custom-tiny-in-san-diego,active,Custom tiny in San Diego ,Tiny House,purchase,0.0,1.0,160.0,San diego,California,http://res.cloudinary.com/tinyhouselistings/image/upload/738898B0-52E9-43F2-A31D-B21BBD9E69B4_nsarzj.jpg,155337,32.7,-117.05,85000.0,2020-10-09,531.25,
217,22497,1999-goshen-freightliner,active,1999 Goshen Freightliner ,Converted Bus,purchase,1.0,1.0,180.0,Warrington,Pennsylvania,http://res.cloudinary.com/tinyhouselistings/image/upload/IMG-6283_hjlfrr.jpg,79052,40.23,-75.14,34500.0,2020-10-09,191.67,
218,22491,perfect-tiny-home-with-free-lot-rent-for-1-year,active,Perfect Tiny Home with free lot rent for 1 year!,Tiny House,purchase,0.0,1.0,192.0,Eufaula,Alabama,http://res.cloudinary.com/tinyhouselistings/image/upload/119734885_10108850872183061_5662646817611752601_o_ibaouo.jpg,155063,31.88,-85.15,65000.0,2020-10-09,338.54,
219,22478,take-a-trainride-high-end-custom-built-tiny-house-for-sale,active,Custom Built Tiny House For Sale - Completely Mobile,Tiny House On Wheels,purchase,1.0,1.0,242.0,Mound House,Nevada,http://res.cloudinary.com/tinyhouselistings/image/upload/Screenshot_2020-10-07_111600_jwqdp5.jpg,155091,39.19,-119.77,110000.0,2020-10-07,454.55,
220,22468,george-b-hotel-is-the-new-camper,active,George - B-hotel is the new CAMPER! ,Rv,purchase,1.0,1.0,110.0,Las Vegas ,Nevada,http://res.cloudinary.com/tinyhouselistings/image/upload/Group_9_psld8i.jpg,154998,36.27,-115.01,61000.0,2020-10-06,554.55,
221,22454,socal-tiny-home-on-wheels,active,SoCal Tiny Home on Wheels,Tiny House On Wheels,purchase,2.0,1.0,288.0,Oxnard,California,http://res.cloudinary.com/tinyhouselistings/image/upload/0000_ef2aup.jpg,154807,34.19,-119.2,65000.0,2020-10-05,225.69,
222,22450,fully-insulated-mobile-studio-shed-or-office,active,"Fully insulated mobile studio, shed or office",Tiny House On Wheels,purchase,1.0,0.0,112.0,Redmond,Washington,http://res.cloudinary.com/tinyhouselistings/image/upload/shedfront_vt7xlh.jpg,154733,47.648605,-121.95529,10900.0,2020-10-04,97.32,
223,22447,2-bedroom-31-tiny-house-for-sale,active,"2 bedroom, 31' luxury tiny house on wheels for sale",Tiny House On Wheels,purchase,2.0,1.0,300.0,Portland,Oregon,http://res.cloudinary.com/tinyhouselistings/image/upload/Cover_yis6km.jpg,154659,45.51,-122.72,99000.0,2020-10-04,330.0,
226,22372,2002-thomas-renovated-skoolie,active,2002 Thomas Renovated Skoolie,Converted Bus,purchase,0.0,0.0,30.0,Fort Lauderdale,Florida,http://res.cloudinary.com/tinyhouselistings/image/upload/bus_2020-19_lzrfdu.jpg,153441,26.14,-80.11,20000.0,2020-09-23,666.67,
227,22365,custom-8x40-converted-shipping-container-tiny-home-cabin-320-sqft,active,Custom 8x40 converted shipping container Tiny Home/Cabin (320 sqft). ,Container Home,purchase,1.0,1.0,320.0,Vernon,Arizona,http://res.cloudinary.com/tinyhouselistings/image/upload/cont_4_mq4bmd.jpg,22552,34.248268,-109.701432,35000.0,2020-09-23,109.38,
228,22360,185sq-ft-tiny-house-on-wheels,active,185sq.ft. Tiny House on Wheels,Tiny House On Wheels,purchase,1.0,1.0,160.0,"Encinitas, San Diego",California,http://res.cloudinary.com/tinyhouselistings/image/upload/IMG_2548_2_gx6nv8.jpg,143715,33.05,-117.29,65000.0,2020-09-22,406.25,
229,22346,remodeled-2016-travel-trailer,active,Remodeled 2016 Travel Trailer,Rv,purchase,1.0,1.0,240.0,Madison,Wisconsin,http://res.cloudinary.com/tinyhouselistings/image/upload/IMG_2036_ifpj0g.jpg,68625,43.08,-89.4,18000.0,2020-09-20,75.0,
230,22339,single-wide-home-coverted-into-ty-house,active,Single wide home coverted into ty house,Tiny House,purchase,2.0,1.0,720.0,Lake Elizabeth ,California,http://res.cloudinary.com/tinyhouselistings/image/upload/PART_1593144501207_4_tky2qg.jpg,152964,34.68,-118.46,45000.0,2020-09-19,62.5,
231,22323,pure-simplicity-24-tiny-house,active,The Burrow- 24' Tiny Home,Tiny House,purchase,1.0,1.0,204.0,Provo,Utah,http://res.cloudinary.com/tinyhouselistings/image/upload/1G3C3008-2a_pykud7_ismool.jpg,141393,40.27,-111.68,54500.0,2020-09-19,267.16,Urban
232,22316,need-a-place-for-your-tiny-home-or-park-model-in-san-diego,active,Need a Place for Your Tiny Home or Park Model in San Diego?,Land,rent,0.0,0.0,234.23182711198427,Ramona,California,http://res.cloudinary.com/tinyhouselistings/image/upload/park_photos_1_rvvy13.jpg,141252,32.981256,-116.906859,1000.0,2020-09-17,4.27,
235,22297,20-steel-frame-tiny-house-by-contractor,active,"20' Steel Frame- 4"" spray foam, Compost toilet, 10k capacity",Tiny House,purchase,1.0,1.0,160.0,Montpelier,Vermont,http://res.cloudinary.com/tinyhouselistings/image/upload/IMG_20200622_133046_g9xveg_e0c8up_ywwoo4.jpg,138526,44.26,-72.57,39000.0,2020-09-15,243.75,
236,22292,ford-e-450-shuttle-bus-conversion,active,Ford E-450 Shuttle Bus Conversion ,Rv,purchase,1.0,0.0,140.0,Los Angeles ,California,http://res.cloudinary.com/tinyhouselistings/image/upload/3B56B9C1-BDA7-4871-A7E2-6B9E153E75C6_ay3mxc.jpg,148294,34.04,-118.24,11500.0,2020-09-14,82.14,
237,22290,ply-pop-camper,active,POP-UP Camper Tiny House,Tiny House,purchase,0.0,0.0,40.0,McGregor ,Minnesota,http://res.cloudinary.com/tinyhouselistings/image/upload/34604517-D7FA-4A14-B106-8880CFE565D3_goztnt.jpg,109656,46.61,-93.31,9750.0,2020-09-14,243.75,
238,22287,spectacular-off-grid-eco-solar-amazing-wood-tiny-house-eye-candy,active,"Spectacular Off-Grid, Eco, Solar, Amazing Wood Tiny House Eye Candy!",Tiny Eco House,purchase,1.0,1.0,200.0,"Ft, Pierce",Florida,http://res.cloudinary.com/tinyhouselistings/image/upload/20200822_092820_wsucl8.jpg,23875,27.43,-80.36,49900.0,2020-09-14,249.5,Eco
239,22263,luxury-tiny-house-cabin-extreme-rv,active,Luxury Tiny House Cabin/ Extreme RV,Converted Bus,purchase,3.0,2.0,424.0,Bismarck,North Dakota,http://res.cloudinary.com/tinyhouselistings/image/upload/IMG_4627_eoypzm.jpg,151519,46.83,-100.77,34900.0,2020-09-12,82.31,
240,22255,little-red-rv-tiny-house-for-sale,active,Little Red RV Tiny House For Sale,Rv,purchase,0.0,1.0,192.0,Madison,Wisconsin,http://res.cloudinary.com/tinyhouselistings/image/upload/IMG_20200802_145120768_HDR_1_vc1vqd.jpg,151744,43.08,-89.4,54000.0,2020-09-11,281.25,
241,22231,the-cedar-queen-28-tiny-house,active,The Cedar Queen 28' Tiny House,Tiny House,purchase,1.0,1.0,238.0,Lyons,Colorado,http://res.cloudinary.com/tinyhouselistings/image/upload/e2ef5427-a1f1-4560-9d2d-c987463d6d8a_mzudy1.jpg,141393,40.22,-105.27,68000.0,2020-09-08,285.71,Treehouse
242,22211,newly-renovated-1987-airstream-excella-tiny-home,active,Newly Renovated 1987 Airstream Excella Tiny Home,Rv,purchase,1.0,1.0,230.0,Efland,North Carolina,http://res.cloudinary.com/tinyhouselistings/image/upload/IMG_2852_phzfxb.jpg,142631,36.07,-79.16,33800.0,2020-09-05,146.96,
243,22170,tiny-house-in-a-toterhome,active,Tiny House in a Toterhome,Rv,purchase,1.0,1.0,292.0,Lubbock,Texas,http://res.cloudinary.com/tinyhouselistings/image/upload/70B381B1-E0FB-4E94-9AF9-7FB27AF01408_gdjlbs.jpg,150424,33.5779,-101.8552,125000.0,2020-09-04,428.08,
244,22169,tiny-home-office,active,Tiny Home Office,Tiny House,purchase,0.0,0.0,96.0,elgin,Illinois,http://res.cloudinary.com/tinyhouselistings/image/upload/INshed-Office_Interior_HDR-3_o756xs.jpg,150425,42.04,-88.28,13500.0,2020-09-04,140.62,
245,22124,2019-elm-equator,active,2019 Elm Equator,Tiny House,purchase,2.0,1.0,260.0,Hastings,Florida,http://res.cloudinary.com/tinyhouselistings/image/upload/20191124_173935_HDR_zpaeje.jpg,149798,29.66,-81.29,76000.0,2020-08-30,292.31,
246,22118,custom-tiny-homes-tiny_house-stationary,active,Custom 12X32 Lofted Barn Style Cabin,Cabin,model,2.0,1.0,384.0,Lady Lake,Florida,http://res.cloudinary.com/tinyhouselistings/image/upload/Screenshot_20200328-092848_1_gogus9.jpg,23751,28.93,-81.94,35000.0,2020-08-29,91.15,
247,22099,custom-go-anywhere-tiny-house,active,"OFF GRID BIG little Tiny! 320 Sq Ft, TV & Appliances Included!",Tiny House,purchase,2.0,1.0,240.0,Conifer,Colorado,http://res.cloudinary.com/tinyhouselistings/image/upload/IMG_5892_gxvtad_cliuod.jpg,138526,39.53,-105.31,90000.0,2020-08-27,375.0,
248,22098,wanderlust-tiny-house-noah-certified,active,Wanderlust  tiny house - NOAH certified ,Tiny House,purchase,1.0,1.0,160.0,Northwood,Ohio,http://res.cloudinary.com/tinyhouselistings/image/upload/0A263077-2191-485A-BD1C-2494FCAA1F02_tj07vn.jpg,128562,41.61,-83.48,30000.0,2020-08-27,187.5,
249,22095,modern-tiny-living-wood-metal-and-natural-light,active,"Modern tiny living - a marriage of wood, metal and natural light",Tiny House,purchase,1.0,1.0,160.0,Taos,New Mexico,http://res.cloudinary.com/tinyhouselistings/image/upload/DSC_0769_2_piwyg9.jpg,148772,36.39,-105.58,45600.0,2020-08-27,285.0,Modern
250,22083,brand-new-cottage-near-beaches-29-900-55-community,active,"Brand New Cottage!  Near Beaches! $20,000! 55+ Community",Tiny House,purchase,1.0,1.0,384.0,Clearwater,Florida,http://res.cloudinary.com/tinyhouselistings/image/upload/CTC.224.1_sdvg8j.jpg,149036,27.951689,-82.783996,20000.0,2020-08-25,52.08,
251,22057,800-180ft2-rv-tiny-house-parking-space-available-east-palo-alto,active,$800 / 180ft2 - RV / Tiny House parking space available (east palo alto),Land,rent,0.0,0.0,250.0,East Palo Alto,California,http://res.cloudinary.com/tinyhouselistings/image/upload/00M0M_3YzG4PGLFSI_0CI0t2_600x450_k7open.jpg,146247,37.46,-122.14,800.0,2020-08-22,3.2,
252,22055,work-from-home-container-office-other,active,Work From Home Container Office,Tiny House,purchase,1.0,0.0,126.0,Sacramento,California,http://res.cloudinary.com/tinyhouselistings/image/upload/Container_Gray1_jchz1o.jpg,148469,38.608843,-121.261009,20000.0,2020-08-21,158.73,
253,22053,luxury-tiny-house-with-sleeping-downstairs,active,Luxury Tiny House  ,Tiny House,purchase,1.0,1.0,315.0,Columbus,Ohio,http://res.cloudinary.com/tinyhouselistings/image/upload/E8D5E5FE-6CF6-4ABC-B5AA-6A3DDD757C9D_jg3du2_ezvehk.jpg,135778,40.08,-82.81,125000.0,2020-08-21,396.83,
254,22003,adaptable-sustainable-tiny-home-available,active,Adaptable Sustainable Tiny Home Available,Tiny House,purchase,1.0,1.0,506.0,Knoxville,Tennessee,http://res.cloudinary.com/tinyhouselistings/image/upload/20201111_162654_egntao.jpg,147302,35.99636,-83.9024,120000.0,2020-08-14,237.15,Eco
255,21987,park_model-mobile,active,398 sf Luxury Park Model with Rustic Styling - ON SALE!,Tiny House On Wheels,purchase,1.0,1.0,399.0,Conroe,Texas,http://res.cloudinary.com/tinyhouselistings/image/upload/45_q0opbw.jpg,24588,30.21,-95.46,82500.0,2020-08-12,206.77,
256,21979,just-built-brand-new-thow-for-sale,active,"Just Built, Brand NEW 20' THOW For Sale",Tiny House,purchase,0.0,1.0,288.0,Tacoma,Washington,http://res.cloudinary.com/tinyhouselistings/image/upload/IMG_20200414_111416106_excelr.jpg,114042,47.22,-122.46,59000.0,2020-08-12,204.86,
257,21965,the-orca-tiny-home,active,The Orca Tiny Home,Tiny House,model,2.0,1.0,240.0,Portland ,Oregon,http://res.cloudinary.com/tinyhouselistings/image/upload/VSQL2553.JPG_z0prs9.jpg,146750,45.51,-122.68,120000.0,2020-08-11,500.0,
258,21947,skoolie-1989-chevrolet,active,Skoolie 1989 Chevrolet,Converted Bus,purchase,2.0,1.0,217.0,Kansas City,Missouri,http://res.cloudinary.com/tinyhouselistings/image/upload/0A033D45-1BBA-4854-B369-3E2E4E334BCA_dmbmzi.jpg,146309,39.0845,-94.563,25000.0,2020-08-08,115.21,
259,21919,ambulance-conversion-van-1994-ford-e350,active,Ambulance Conversion Van - 1994 Ford E350,Converted Bus,purchase,1.0,1.0,100.0,Branford,Connecticut,http://res.cloudinary.com/tinyhouselistings/image/upload/IMG_7076_cr9ifr.jpg,145651,41.28,-72.81,12500.0,2020-08-04,125.0,
260,21891,custom-tiny-house-8-5-x-26-trailer-hardwoods-bathroom-kitchen,active,8X26 Tiny House,Tiny House,purchase,1.0,1.0,262.0,san diego,California,http://res.cloudinary.com/tinyhouselistings/image/upload/BLUE_best_2_vv8ceh.jpg,22672,32.98,-117.09,39000.0,2020-07-30,148.85,
261,21884,charming-tiny-house-with-many-extras,active,Charming Tiny House With Many Extras,Tiny House,purchase,1.0,1.0,160.0,Ringgold,Georgia,http://res.cloudinary.com/tinyhouselistings/image/upload/20190929_171306_a7m3cx.jpg,113127,34.91,-85.13,44950.0,2020-07-28,280.94,
262,21864,dreamcatcher,active,Dreamcatcher ,Tiny House,purchase,2.0,1.0,320.0,Jacksboro,Texas,http://res.cloudinary.com/tinyhouselistings/image/upload/87F36A1B-4210-45E6-AFA6-D45DE7E6B1B5_xnrdis.jpg,143683,33.21,-98.16,95000.0,2020-07-25,296.88,Boho
263,21859,rough-electrical-plumbing-framed-container-home,active,"Rough Electrical, Plumbing, & Framed Container Home",Container Home,model,2.0,1.0,320.0,Elwood ,Utah,http://res.cloudinary.com/tinyhouselistings/image/upload/IMG_1604_ky9t9r.jpg,85440,41.73,-112.18,14800.0,2020-07-24,46.25,
264,21855,new-container-home-container_home,active,New Container Home ,Container Home,model,2.0,2.0,424.0,Miami,Florida,http://res.cloudinary.com/tinyhouselistings/image/upload/IMG_0859_mx12z0.jpg,143795,25.75,-80.26,55000.0,2020-07-24,129.72,
265,21853,new-container-home,active,New Affordable Container Home ,Tiny House,purchase,1.0,1.0,320.0,Miami,Florida,http://res.cloudinary.com/tinyhouselistings/image/upload/Attachment_1587966267-600x326_vnp43z.jpg,143795,25.75,-80.25,40000.0,2020-07-24,125.0,
266,21836,rail-road-caboose-tiny-house,active,Rail road caboose tiny house,Converted Railcar,purchase,1.0,1.0,431.0,Pensacola,Florida,http://res.cloudinary.com/tinyhouselistings/image/upload/IMG_20200627_150416_zqkx3r.jpg,143539,30.4,-87.28,80000.0,2020-07-22,185.61,
267,21829,duramax-gable-roof-tiny-house-insulated-building-8-5-x-26,active,Duramax Gable Roof Tiny House/Insulated Building 8.5' x 26',Tiny House,purchase,0.0,0.0,240.0,Commerce,California,http://res.cloudinary.com/tinyhouselistings/image/upload/8.5_X_26_TINY_HOUSE_cm5ruf.jpg,114099,34.01,-118.16,9999.0,2020-07-22,41.66,
268,21827,affordable-20-container-on-wheels-with-french-doors,active,Affordable 20' Container on Wheels With French Doors,Container Home,purchase,1.0,1.0,160.0,Elwood,Utah,http://res.cloudinary.com/tinyhouselistings/image/upload/IMG_2497_iynuw0.jpg,85440,41.73,-112.18,20000.0,2020-07-21,125.0,
269,21823,tiny-house-trailer-proffesionally-built-dot-for-tiny-house,active,Tiny House trailer proffesionally built DOT for tiny house,Converted Bus,purchase,0.0,0.0,192.0,Laredo,Texas,http://res.cloudinary.com/tinyhouselistings/image/upload/PHOTO-2020-07-06-18-05-132_nla2zr.jpg,122221,27.5,-99.5,6000.0,2020-07-21,31.25,
271,21780,move-in-ready-tiny-home,active,Move in ready Tiny Home,Container Home,purchase,0.0,1.0,144.0,Dinuba ,California,http://res.cloudinary.com/tinyhouselistings/image/upload/IMG_9602_iuwhhs.jpg,142508,36.536001,-119.389325,38000.0,2020-07-17,263.89,
272,21767,brand-new-luxury-container-home,active,Brand New Luxury Container Home ,Container Home,purchase,1.0,1.0,320.0,Royse City,Texas,http://res.cloudinary.com/tinyhouselistings/image/upload/119998309_193097825682036_1301796586338621778_o_hmnte8.jpg,142318,32.97,-96.33,55000.0,2020-07-15,171.88,
274,21747,brand-new-luxury-tiny-home-for-sale,active,King Size Bed Loft w/Farmhouse Bathroom Door Off Grid Capable,Tiny House,purchase,1.0,1.0,200.0,Hildale,Utah,http://res.cloudinary.com/tinyhouselistings/image/upload/3E21303A-3A8C-4CB7-B492-C5C0F979684B_a0gjbu_vuu4cj.jpg,138526,37.049373,-113.012049,75000.0,2020-07-13,375.0,
275,21732,great-tiny-house-with-big-kitchen,active,Great Tiny House with Big Kitchen!,Tiny House,purchase,0.0,1.0,200.0,Medford ,New York,http://res.cloudinary.com/tinyhouselistings/image/upload/TH3_xrgc1a.jpg,141618,40.83,-73.02,80000.0,2020-07-12,400.0,
276,21722,affordable-tiny-house-reduced-price-49d54732-c764-4a17-93c1-f45b845c7b07,active,Cabin Style 24' Tiny House  - Reduced price!,Cabin,purchase,2.0,1.0,220.0,Chattanooga,Tennessee,http://res.cloudinary.com/tinyhouselistings/image/upload/IMG_1324_z14jda.jpg,141393,35.03,-85.16,54000.0,2020-07-10,245.45,
277,21716,cabin-in-texas,active,Cabin in Texas,Cabin,purchase,2.0,1.0,20.0,Georgetown,Texas,http://res.cloudinary.com/tinyhouselistings/image/upload/Screenshot_2020-02-23-14-28-37_fn1nq7.jpg,141365,30.66,-97.67,40000.0,2020-07-10,2000.0,
278,21707,nordic-and-spruce-custom-tinyhouses-and-studios,active,Modular Nordic Style Tiny Houses and Studios ,Tiny House,model,0.0,0.0,130.0,Monterey,Tennessee,http://res.cloudinary.com/tinyhouselistings/image/upload/5D7C8703-B5B6-43DF-9318-FF273AF8230C_tkfx0o.jpg,117240,36.14,-85.27,9000.0,2020-07-09,69.23,Treehouse
279,21701,affordable-20-container-home-on-wheels-for-20k,active,Affordable 20' Container Home on Wheels for $20k,Container Home,purchase,0.0,1.0,160.0,Elwood,Utah,http://res.cloudinary.com/tinyhouselistings/image/upload/FRONT_qebxdv.jpg,85440,41.73,-112.18,20000.0,2020-07-08,125.0,
280,21689,eco-container-tiny-house-can-be-shipped-to-you,active,ECO Container Tiny House (Can be shipped to you),Container Home,purchase,0.0,1.0,160.0,chicago,Illinois,http://res.cloudinary.com/tinyhouselistings/image/upload/99113929_10217812402558802_1173554896864018432_n_wmavea.jpg,132955,41.92387,-87.71797,31999.0,2020-07-07,199.99,Eco
281,21688,this-quaint-country-songwriters-cabin-is-a-wonderful-place-to-live-vacation-seek-solitude-or-play-it-offers-a-little-something-for-everyone,active,"This quaint, country, songwriters cabin is a wonderful place to live, vacation, seek solitude or play.  ​​It offers a little something for everyone.",Cabin,purchase,4.0,1.0,240.0,Nunnelly,Tennessee,http://res.cloudinary.com/tinyhouselistings/image/upload/image_jfmjen.jpg,20995,35.89,-87.48,85000.0,2020-07-07,354.17,
283,21655,the-new-2021-ranch-house-under-50-000,active,"The New 2021 Ranch House Under $55,000",Tiny House,purchase,1.0,1.0,399.0,Mansfield,Texas,http://res.cloudinary.com/tinyhouselistings/image/upload/IMG-5719_ym873g.jpg,27311,32.61,-97.12,54875.0,2020-07-01,137.53,Ranch
284,21651,duramax-gable-roof-tiny-house-insulated-building-8-5-x-20,active,Duramax Gable Roof Tiny House/Insulated Building 8.5' x 20',Tiny House,model,1.0,1.0,160.0,Los Angeles,California,http://res.cloudinary.com/tinyhouselistings/image/upload/BOSS_FRONT_RIGHT_SIDE_VIEW_OP._3_suptyy.jpg,114099,34.01,-118.16,7599.0,2020-07-01,47.49,
285,21649,mt-bachelor-park_model,active,Mt Bachelor,Tiny House,model,1.0,1.0,400.0,Salem,Oregon,http://res.cloudinary.com/tinyhouselistings/image/upload/Mt_Bachelor_2_wzuvbu.jpg,135778,44.94,-123.03,76995.0,2020-06-30,192.49,
286,21631,cute-tiny-house-near-downtown-denver,active,Cute Tiny House Near Downtown Denver,Tiny House,purchase,1.0,1.0,250.0,Lakewood,Colorado,http://res.cloudinary.com/tinyhouselistings/image/upload/104377623_598187827558909_646880802579660545_n_mejo7b.jpg,105442,39.74,-105.06,32000.0,2020-06-28,128.0,
287,21615,20-mobile-container-home,active,20’ Mobile Container Home ,Container Home,purchase,1.0,1.0,160.0,Elwood,Utah,http://res.cloudinary.com/tinyhouselistings/image/upload/31907E09-ED23-4B2D-8F84-4CBC38E23CB7_dvujkj.jpg,85440,41.925011,-112.145329,20000.0,2020-06-26,125.0,
288,21609,luxurious-35-goosenecktiny-house-for-sale-with-a-kegerator-tiny_house,active,Luxurious 35' GooseneckTiny House For Sale! With a kegerator,Tiny House,model,1.0,1.0,280.0,Chattanooga,Tennessee,http://res.cloudinary.com/tinyhouselistings/image/upload/1AE1B5EF-AD4C-452F-9E7A-A414F6F7079D_eppmo6_disvzo.jpg,135778,35.03,-85.16,132500.0,2020-06-26,473.21,
289,21601,edgewater-office-adu,active,Edgewater Office/ADU,Tiny House,purchase,1.0,1.0,264.0,Salem,Oregon,http://res.cloudinary.com/tinyhouselistings/image/upload/IMG_0241_znyov3.jpg,135778,44.94,-123.03,28995.0,2020-06-25,109.83,
290,21585,modern-penthouse-micro-unit-container_home,active,Modern Penthouse Micro Unit,Container Home,purchase,1.0,1.0,80.0,Phoenix,Arizona,http://res.cloudinary.com/tinyhouselistings/image/upload/received_352518485719094_r3krgx_ocamqr.jpg,135778,33.411855,-112.074979,22500.0,2020-06-23,281.25,Modern
291,21579,nature-s-retreat-solid-wood-custom-built-mini-home-12-x-30,active,Nature's Retreat Solid Wood Custom Built Tiny Home 12' x 30' - 1 Bedroom/1 Bathroom,Tiny House,purchase,1.0,1.0,350.0,Albany,Kentucky,http://res.cloudinary.com/tinyhouselistings/image/upload/P1230625_opai4t.jpg,138207,36.71,-85.13,59500.0,2020-06-23,170.0,
292,21541,the-washougal,active,The Washougal,Tiny House,model,1.0,1.0,400.0,Salem,Oregon,http://res.cloudinary.com/tinyhouselistings/image/upload/Washougal_Snow_4_u2unuw_ix8vrq.jpg,135778,44.94,-123.03,78995.0,2020-06-18,197.49,
293,21533,modern-penthouse-container-home,active,Modern Penthouse Container Home,Container Home,purchase,1.0,1.0,320.0,Phoenix,Arizona,http://res.cloudinary.com/tinyhouselistings/image/upload/20200617_073519_perzmg_wceiae.jpg,135778,33.4486,-112.0773,65000.0,2020-06-17,203.12,Modern
294,21510,used-tiny-house-12x32ft,active,Used tiny house 12X32ft,Cabin,purchase,1.0,1.0,384.0,Macomb,Oklahoma,http://res.cloudinary.com/tinyhouselistings/image/upload/IMG_20200616_005023057_paozti.jpg,136831,35.16,-96.94,15000.0,2020-06-14,39.06,
295,21509,blessed-value,active,Blessed Value,Tiny House,purchase,1.0,1.0,297.0,La Grande,Oregon,http://res.cloudinary.com/tinyhouselistings/image/upload/IMG_0257_mrkevs.jpg,75802,45.32,-118.09,65000.0,2020-06-14,218.86,
296,21498,stunning-2020-26ft-double-loft-rvia-certified,active,Stunning 2020 26ft Double Loft RVIA Certified,Converted Bus,purchase,2.0,1.0,250.0,Croswell,Michigan,http://res.cloudinary.com/tinyhouselistings/image/upload/IMG_81511_awvdgl.jpg,136618,43.27,-82.62,79999.0,2020-06-13,320.0,
297,21492,10x20ft-no-permit-playhouses-cabins-on-wood-skids-runners-8x20ft-tiny-houses-on-wheels-add-6k-trailer,active,"Home of the $31,000  (them: $67-92K) Tiny House! Show model or custom build. Colorado.   $11K free upgrades inc. ",Tiny House,model,1.0,1.0,200.0,Delta,Colorado,http://res.cloudinary.com/tinyhouselistings/image/upload/8x20ft_7_suwtp1.jpg,40721,38.7422,-108.069,25000.0,2020-06-12,125.0,
298,21472,beautiful-38-tiny-house-with-main-floor-sleeping-for-sale-tiny_house,active,Beautiful 38' tiny house with main floor sleeping for sale,Tiny House,purchase,1.0,1.0,304.0,Chattanooga,Tennessee,http://res.cloudinary.com/tinyhouselistings/image/upload/IMG-2087_i3g96j_cj5e1p.jpg,135778,35.03,-85.16,84800.0,2020-06-09,278.95,
299,21471,affordable-tiny-house-reduced-price-tiny_house-mobile-purchase,active,Affordable Tiny House  - Reduced price!,Tiny House On Wheels,purchase,1.0,1.0,200.0,Chattanooga,Tennessee,http://res.cloudinary.com/tinyhouselistings/image/upload/IMG_0173_ryuble_pq4lnm.jpg,135778,35.03,-85.16,37100.0,2020-06-09,185.5,
300,21463,main-floor-sleeping-beautiful-32-x-10-tiny-house-tiny_house,active,Main Floor Sleeping!! Beautiful 32' x 10'  tiny house.,Tiny House,model,1.0,1.0,320.0,Chattanooga,Tennessee,http://res.cloudinary.com/tinyhouselistings/image/upload/20191106_064608_k1ecrs_m5u53l.jpg,135778,35.03,-85.16,135000.0,2020-06-08,421.88,
301,21459,tiny-is-good-tiny_house,active,Tiny Is Good,Tiny House,purchase,1.0,1.0,399.0,Mansfield,Texas,http://res.cloudinary.com/tinyhouselistings/image/upload/IMG_3310_fb2zna.jpg,27311,32.61,-97.12,45000.0,2020-06-08,112.78,
302,21457,the-outdoorsman-cabin-model,active,The Outdoorsman Cabin model,Cabin,purchase,1.0,1.0,400.0,Mansfield,Texas,http://res.cloudinary.com/tinyhouselistings/image/upload/IMG-4118_ioumt0.jpg,27311,32.61,-97.12,72000.0,2020-06-08,180.0,
303,21456,the-original-thinhaus-tiny_house,active,The Original ThinHaus,Tiny House,purchase,2.0,1.0,240.0,Phoenix,Arizona,http://res.cloudinary.com/tinyhouselistings/image/upload/TH_paradise_pic_overexposed_hp1dsx.jpg,135560,33.4486,-112.0773,79875.0,2020-06-08,332.81,
304,21404,40-off-grid-container-home-in-stock-for-sale,active,40' Off Grid Container Home In Stock For Sale,Container Home,purchase,2.0,1.0,320.0,Elwood,Utah,http://res.cloudinary.com/tinyhouselistings/image/upload/DSC00063_kgbwef.jpg,85440,41.73,-112.18,75000.0,2020-06-05,234.38,
305,21403,settled-nomad-tiny-home-on-wheels,active,"""Settled Nomad"" Tiny Home on Wheels",Tiny House On Wheels,purchase,1.0,1.0,270.0,Branson,Missouri,http://res.cloudinary.com/tinyhouselistings/image/upload/IMG_6468_iwqp2l.jpg,135204,36.64,-93.21,59999.0,2020-06-05,222.22,
306,21387,tiny-idahomes-24-clear-creek,active,Tiny Idahomes 24' Clear Creek,Tiny House,purchase,1.0,1.0,192.0,Emmett,Idaho,http://res.cloudinary.com/tinyhouselistings/image/upload/01-Exterior_Front_f3jyrq.jpg,20797,43.87,-116.5,58275.0,2020-06-03,303.52,
308,21367,20-basic-container-home,active,20' Basic Container Home,Container Home,model,1.0,1.0,160.0,Elwood,Utah,http://res.cloudinary.com/tinyhouselistings/image/upload/rugged-cabin-shipping-container-big-horn-spokane_ready_pqnymu.jpg,85440,41.67408,-112.14071,9985.0,2020-06-01,62.41,
313,21272,the-almont-camper-cabin,active,The Almont (Camper-Cabin),Cabin,purchase,1.0,1.0,128.0,Alpharetta,Georgia,http://res.cloudinary.com/tinyhouselistings/image/upload/IMG-3340_t6hhvq.jpg,92128,34.09,-84.27,29500.0,2020-05-20,230.47,
314,21244,40-apoca-outpost-overview,active,40' Apoca Outpost Overview,Container Home,model,2.0,1.0,320.0,Elwood,Utah,http://res.cloudinary.com/tinyhouselistings/image/upload/DSC00424_bpg4gc.jpg,85440,41.73,-112.18,55000.0,2020-05-16,171.88,
315,21243,az-tiny-house-haven,active,AZ tiny house haven,Tiny House,purchase,2.0,1.0,200.0,Phoenix,Arizona,http://res.cloudinary.com/tinyhouselistings/image/upload/31F176B4-EAD3-4382-AC00-83EB0117CABD_k9jmsn.jpg,132057,33.68,-111.98,60000.0,2020-05-15,300.0,
316,21241,custom-modern-tiny-house-almost-400-sq-ft,active,Custom 28' Tiny Home,Tiny House,purchase,0.0,1.0,250.0,Browns Mills,New Jersey,http://res.cloudinary.com/tinyhouselistings/image/upload/Tiny_house_1_qhv4dl.jpg,132036,39.88,-74.96,40000.0,2020-05-15,160.0,Modern
317,21229,custom-shipping-container-tiny-home-tiny_house,active,Custom Shipping Container Tiny Home,Tiny House,purchase,0.0,1.0,180.0,Portland,Oregon,http://res.cloudinary.com/tinyhouselistings/image/upload/IMG_0307_uamki3.jpg,131598,45.59,-122.59,35000.0,2020-05-13,194.44,
318,21222,bear-ridge,active,Bear Ridge,Tiny House,model,1.0,1.0,476.0,Due West,South Carolina,http://res.cloudinary.com/tinyhouselistings/image/upload/IMG_2125_daxbam.jpg,77550,34.299456,-82.454842,84700.0,2020-05-12,177.94,
319,21187,tiny-house-shell-best-quality-building-materials-in-progress,active,Tiny House Shell Best Quality Building Materials (in progress) ,Tiny House,purchase,0.0,1.0,200.0,Ft. Pierce,Florida,http://res.cloudinary.com/tinyhouselistings/image/upload/3_dtyr5d.jpg,23875,27.43,-80.36,19900.0,2020-05-07,99.5,
320,21186,wood-lovers-dream-amazing-tiny-house,active,Wood Lovers Dream Amazing Tiny House!,Tiny House,purchase,1.0,1.0,140.0,Ft Pierce ,Florida,http://res.cloudinary.com/tinyhouselistings/image/upload/IMG_8534_wvkkni.jpg,23875,27.43,-80.36,49900.0,2020-05-07,356.43,Boho
321,21168,spacious-and-luxurious-tiny-homes-bay-cottage-and-tiny-victorian,active,Spacious and Luxurious Tiny Homes: Bay Cottage and Tiny Victorian,Tiny House,model,1.0,1.0,211.0,Pacifica,California,http://res.cloudinary.com/tinyhouselistings/image/upload/Screen_Shot_2021-01-07_at_9.03.09_AM_eycauh.jpg,63276,37.65,-122.49,39900.0,2020-05-05,189.1,
325,21151,new-container-home-on-chasis-king-trailer-with-finance-available,active,New Container Home on Trailer with Finance Available,Container Home,purchase,0.0,1.0,160.0,Hickory Creek,Texas,http://res.cloudinary.com/tinyhouselistings/image/upload/IMG_1371_dmtged.jpg,129804,33.12,-97.03,44900.0,2020-05-02,280.62,
326,21147,duramax-flat-top-insulated-building,active,Duramax Flat-Top Insulated Building,Tiny House On Wheels,purchase,0.0,0.0,130.0,Commerce,California,http://res.cloudinary.com/tinyhouselistings/image/upload/duramax-insulated-buildings-flat-top-insulated-buildings-13-ft-w-x-10-ft-d-2493338648634_1400x_fimcsb.jpg,114099,34.01,-118.16,3710.0,2020-05-01,28.54,
327,21137,40-two-bedroom-cargo-container-home,active,40' Two Bedroom Cargo  Container Home,Container Home,model,2.0,1.0,320.0,El,Utah,http://res.cloudinary.com/tinyhouselistings/image/upload/AL1_READY_002_j4rzep.jpg,85440,41.73,-112.18,55000.0,2020-04-30,171.88,
328,21135,8x20-cargo-container-home-grid-tied,active,8x20 Cargo Container Home Grid Tied,Container Home,model,1.0,1.0,160.0,Elwood,Utah,http://res.cloudinary.com/tinyhouselistings/image/upload/1-Backyard-Tree-Ideas-iStock_Ready_of4usl.jpg,85440,41.73,-112.18,40000.0,2020-04-30,250.0,
329,21103,tiny-house-tiny_house-mobile-rent,active,Tiny House ,Tiny House On Wheels,rent,1.0,1.0,200.0,Leesburg,Florida,http://res.cloudinary.com/tinyhouselistings/image/upload/20191212_093810_t64dvh.jpg,95566,28.82,-81.78,850.0,2020-04-24,4.25,
330,21100,20-off-grid-bunkhouse,active,20' Off Grid Bunkhouse ,Container Home,purchase,1.0,1.0,160.0,Elwood,Utah,http://res.cloudinary.com/tinyhouselistings/image/upload/DSC00269_i6hdmd.jpg,85440,41.73,-112.18,80000.0,2020-04-24,500.0,
331,20964,2020-aspen-by-homestead-tiny-house,active,2020 Aspen by Homestead Tiny House,Tiny House,purchase,2.0,1.0,192.0,Alpharetta,Georgia,http://res.cloudinary.com/tinyhouselistings/image/upload/IMG_2816_rlrdpy.jpg,92128,34.09,-84.27,49000.0,2020-03-31,255.21,
332,20955,blue-mountain-tiny-home,active,Blue Mountain Tiny Home,Tiny House,purchase,1.0,1.0,400.0,La Grande ,Oregon,http://res.cloudinary.com/tinyhouselistings/image/upload/IMG_0212_gncff1.jpg,75802,45.32,-118.09,85000.0,2020-03-28,212.5,
333,20936,custom-open-tiny-dream-tiny_house,active,Custom OPEN Tiny Dream! ,Tiny House,purchase,0.0,1.0,250.0,flagstaff,Arizona,http://res.cloudinary.com/tinyhouselistings/image/upload/IMG_20200226_122204_qk6l3y.jpg,24360,35.19,-111.65,69999.0,2020-03-24,280.0,Boho
334,20925,finished-tiny-cabin,active,Finished Tiny Cabin,Cabin,purchase,0.0,0.0,190.0,Beatty ,Oregon,http://res.cloudinary.com/tinyhouselistings/image/upload/3831595A-1134-4EF1-AC73-9B1859D99E7C_fnwfoj.jpg,123465,42.499437,-121.260048,15000.0,2020-03-22,78.95,
335,20914,20-roanoke-tumbleweed-new,active,20’ Roanoke Tumbleweed - New,Tiny House,purchase,1.0,1.0,139.0,Malibu,California,http://res.cloudinary.com/tinyhouselistings/image/upload/9396A570-6A8E-4E33-AA21-6EA681F20F08_xd8zb8.jpg,113897,34.02,-118.83,62000.0,2020-03-21,446.04,
336,20911,the-westhaven-home,active,The Westhaven Home,Tiny House,model,1.0,1.0,205.0,bend,Oregon,http://res.cloudinary.com/tinyhouselistings/image/upload/DSC_0006_qk4iul_1_jtrehx.jpg,77485,44.06,-121.26,70000.0,2020-03-20,341.46,
337,20890,40-off-grid-outpost-smart-home,active,40' Off Grid Outpost Smart Home,Container Home,purchase,2.0,1.0,320.0,Elwood,Utah,http://res.cloudinary.com/tinyhouselistings/image/upload/G6_gi7ejd.jpg,85440,41.73,-112.18,90000.0,2020-03-17,281.25,
338,20889,40-off-grid-smart-home-container_home,active,40' Off Grid Smart Home ,Container Home,purchase,2.0,1.0,320.0,Elwoo,Utah,http://res.cloudinary.com/tinyhouselistings/image/upload/Apoca_Living_Sunset_2_aox16k.jpg,85440,41.73,-112.18,95000.0,2020-03-17,296.88,
339,20856,amazing-grace,active,Amazing Grace,Tiny House,purchase,0.0,1.0,160.0,Industry ,Pennsylvania,http://res.cloudinary.com/tinyhouselistings/image/upload/Resized_20200222_114433_1_iy96g0.jpg,122223,40.69,-80.45,29900.0,2020-03-11,186.88,
340,20845,archv-park_model,active,ARCHV,Tiny House,purchase,1.0,1.0,160.0,Norman,Oklahoma,http://res.cloudinary.com/tinyhouselistings/image/upload/IMG_E6608_fnf5ib.jpg,117613,35.2226,-97.4395,39000.0,2020-03-10,243.75,
341,20832,intentional-tiny-house-emf-resistant-micro-office-with-full-roof-skylight,active,"INTENTIONAL Tiny House - EMF Resistant, Micro Office with Full Roof Skylight",Tiny House,purchase,0.0,0.0,60.0,Pittsburgh,Pennsylvania,http://res.cloudinary.com/tinyhouselistings/image/upload/20200228_192535_rgmf1o.jpg,56901,40.42,-80.01,12500.0,2020-03-08,208.33,
342,20794,new-tiny-home-67cca016-8ce9-44e9-8532-1495a4673356,active,New Tiny home ,Tiny House,purchase,1.0,1.0,18.0, El Cajon ,California,http://res.cloudinary.com/tinyhouselistings/image/upload/ED5B2329-FAAA-4BA9-9790-6E52391378D5_frrj6c.jpg,121600,32.79,-116.97,22000.0,2020-03-07,1222.22,
343,20762,off-grid-tiny-house-for-sale,active,Off-Grid Tiny House For Sale.,Tiny House,purchase,1.0,1.0,272.0,Spring Grove,Pennsylvania,http://res.cloudinary.com/tinyhouselistings/image/upload/IMG_2019-07-19_13-32-46_urafsc.jpg,121209,39.89,-76.86,75000.0,2020-03-03,275.74,
344,20755,off-grid-sustainable-smart-homes,active,Off Grid Sustainable Smart Homes,Container Home,purchase,1.0,2.0,320.0,Elwood,Utah,http://res.cloudinary.com/tinyhouselistings/image/upload/Apoca_Living_Sunset_gjv6q5.jpg,85440,41.73,-112.18,95000.0,2020-03-03,296.88,Eco
346,20739,craftsman-tiny-house-tiny_house-floating,active,Craftsman Tiny House,Tiny House,purchase,2.0,1.0,293.0,Torrington,Wyoming,http://res.cloudinary.com/tinyhouselistings/image/upload/_IMG_3208_wud2vh.jpg,104161,42.07,-104.18,75000.0,2020-03-01,255.97,
347,20737,spacious-tiny-house-tiny_house-stationary-purchase,active,Spacious Tiny House,Tiny House,purchase,1.0,1.0,200.0,PUEBLO WEST,Colorado,http://res.cloudinary.com/tinyhouselistings/image/upload/20190604_095904_p10ubh.jpg,89464,38.31,-104.76,34500.0,2020-02-29,172.5,
348,20703,beautiful-new-23x8-tiny-house,active,"Beautiful, New 23x8 Tiny House",Tiny House,purchase,1.0,1.0,160.0,Penn Yan,New York,http://res.cloudinary.com/tinyhouselistings/image/upload/IMG_7906_jqann2.jpg,120440,42.61,-77.09,46500.0,2020-02-26,290.62,
349,20666,elegant-tiny-house,active,Elegant Tiny House,Tiny House,purchase,1.0,1.0,168.0,Covington,Washington,http://res.cloudinary.com/tinyhouselistings/image/upload/198511B0-31A4-4432-96DC-3D524DE1B1C2_b9gsbb.jpg,104636,47.45,-122.18,97000.0,2020-02-21,577.38,
351,20645,beautiful-unique-house-bus,active,Beautiful Unique Tiny House on Wheels,Converted Bus,purchase,2.0,0.0,150.0,Port Townsend,Washington,http://res.cloudinary.com/tinyhouselistings/image/upload/UNADJUSTEDNONRAW_thumb_13d1_xhofi3.jpg,119465,48.1,-122.79,49000.0,2020-02-18,326.67,
352,20617,10-foot-ceiling-park-model-rv,active,10 Foot Ceiling Park Model RV,Converted Bus,purchase,1.0,1.0,399.0,Mansfield,Texas,http://res.cloudinary.com/tinyhouselistings/image/upload/IMG_3914_xsniki.jpg,27311,32.556509,-97.146356,69900.0,2020-02-15,175.19,
354,20560,brand-new-off-grid-capable-gorgeous-tiny-house-on-wheels,active,Brand New Off-Grid Capable  Gorgeous Tiny House on Wheels,Tiny House On Wheels,purchase,1.0,1.0,200.0,Gilbert ,Arizona,http://res.cloudinary.com/tinyhouselistings/image/upload/252F3280-6592-49B5-9189-7F1F00A9510B_urifuf.jpg,97092,33.34,-111.83,80000.0,2020-02-06,400.0,
355,20478,new-container-tiny-home-studio-or-office,active,New  container Tiny Home studio or Office. 15% Discount,Container Home,purchase,1.0,0.0,160.0,Valencia,California,http://res.cloudinary.com/tinyhouselistings/image/upload/125F2491-DFFF-4C6C-8298-1A120FEB6675_uouwsh.jpg,64175,34.42,-118.56,25075.0,2020-01-26,156.72,
356,20442,brand-new-tiny-home-for-sale-tiny_house,active,Brand new tiny home for sale ,Tiny House,purchase,1.0,1.0,234.23182711198427,Atlanta,Georgia,http://res.cloudinary.com/tinyhouselistings/image/upload/9F3163CC-D0BE-4F2F-9AD8-00B45CD0435B_tcppox.jpg,95435,33.74,-84.41,40000.0,2020-01-23,170.77,
357,20424,quaint-cottage,active,Quaint Cottage,Tiny House,purchase,0.0,1.0,264.0,Duewest,South Carolina,http://res.cloudinary.com/tinyhouselistings/image/upload/Attachment-8_evln3y.jpg,77550,34.299456,-82.454842,41600.0,2020-01-21,157.58,
358,20418,traditional-mongolian-yurt-ger-other,active,Traditional Mongolian Yurt (ger),Yurt,purchase,1.0,0.0,285.0,Flagstaff,Arizona,http://res.cloudinary.com/tinyhouselistings/image/upload/GerPhotos2019_02_vte4rz.jpg,20257,35.198161,-111.64627,7200.0,2020-01-20,25.26,
359,20416,the-arion-a-roof-top-deck-tiny-house,active,The ARION a Roof top deck tiny house,Tiny House,purchase,2.0,1.0,208.0,emmett,Idaho,http://res.cloudinary.com/tinyhouselistings/image/upload/02-Exterior_View_gbymjo.jpg,20797,43.87,-116.5,88620.0,2020-01-20,426.06,
360,20404,spindrift-presents-joshua-tree-tiny-home,active,The Joshua Tree,Tiny House,purchase,2.0,1.0,231.0,Bend,Oregon,http://res.cloudinary.com/tinyhouselistings/image/upload/77D9FF16-9302-4BB0-94DC-38943BF615DA_xrel1n.jpg,77485,44.06,-121.26,80000.0,2020-01-18,346.32,
361,20373,duramax-tiny-home-8-5-x-20-gable-roof-shell,active,Duramax Tiny Home 8.5' x 20' Gable Roof Shell,Tiny House On Wheels,model,1.0,0.0,169.0,Commerce,California,http://res.cloudinary.com/tinyhouselistings/image/upload/THbeautyshell3M2_copy_a62ldq.jpg,114099,34.01,-118.16,7599.0,2020-01-13,44.96,
362,20288,20ft-single-story-tiny-perfect-for-mother-in-laws-couples-singles-studio-adu-guest-home-etc,active,20ft Single Story Tiny Perfect for Mother in Laws/couples/singles/studio/ADU/guest home etc...,Tiny House,model,1.0,1.0,170.0,Anderson,California,http://res.cloudinary.com/tinyhouselistings/image/upload/8E91BD0B-6729-4813-9DA7-567512F79579_cx958h.jpg,21023,40.45,-122.3,26000.0,2020-01-01,152.94,
363,20274,affordable-tiny-house-reduced-price,active,Affordable Tiny House  - Reduced price!,Tiny House,purchase,1.0,1.0,195.0,Chattanooga,Tennessee,http://res.cloudinary.com/tinyhouselistings/image/upload/IMG_0161_zfkzva.jpg,21957,35.03,-85.16,42800.0,2019-12-30,219.49,
364,20273,affordable-tiny-house-on-skids-reduced-price,active,Affordable Tiny House on  Skids -Reduced price!,Tiny House,purchase,1.0,1.0,260.0,Chattanooga,Tennessee,http://res.cloudinary.com/tinyhouselistings/image/upload/IMG_0188_vpdpus.jpg,21957,35.03,-85.16,36500.0,2019-12-30,140.38,
365,20264,the-original-tiny-tailgater,active,The Original Tiny Tailgater ,Tiny House,purchase,0.0,1.0,154.0,Stillwater ,Oklahoma,http://res.cloudinary.com/tinyhouselistings/image/upload/82FAB3C0-64E9-45EB-86B0-FBE1C5572A1D_pxb57y.jpg,112605,36.12,-97.08,70000.0,2019-12-28,454.55,
366,20255,tiny-idahomes-limited-model-pricing-26-clear-creek,active,Limited model pricing 26' clear creek,Tiny House,model,2.0,1.0,200.0,emmett,Idaho,http://res.cloudinary.com/tinyhouselistings/image/upload/IMG_0855_x1zc5b.jpg,20797,43.87,-116.5,50000.0,2019-12-27,250.0,
367,20234,full-cedar-house-on-wheels-we-deliver,active,"Full Cedar House on Wheels (We Deliver, Ships Quick!)",Tiny House On Wheels,purchase,0.0,1.0,165.0,Bloomfield Hills,Michigan,http://res.cloudinary.com/tinyhouselistings/image/upload/House1_1_bfwb93.jpg,52983,42.6,-83.27,34550.0,2019-12-22,209.39,Treehouse
368,20187,quantum-house,active,QUANTUM HOUSE on Wheels or Foundation.  (We Deliver!),Tiny House On Wheels,purchase,2.0,1.0,240.0,Clearlake Oaks,California,http://res.cloudinary.com/tinyhouselistings/image/upload/Establish_bw2bzh.jpg,110139,39.0263,-122.6719,116000.0,2019-12-12,483.33,
369,20171,brand-new-tiny-house-meadowview-model,active,Brand New Tiny House - Meadowview Model,Tiny House,purchase,1.0,1.0,250.0,Brick,New Jersey,http://res.cloudinary.com/tinyhouselistings/image/upload/5C4C1B11-5416-4FF2-853F-AD30EBE228FD_ptithv.jpg,109004,40.1,-74.14,62500.0,2019-12-10,250.0,
370,20168,16-tiny-house-for-sale-tiny_house_trailer,active,16' Tiny House on Wheels For Sale! ,Tiny House On Wheels,purchase,1.0,0.0,160.0,North Bergen,New Jersey,http://res.cloudinary.com/tinyhouselistings/image/upload/IMG_1699_vemqvv.jpg,101179,40.77,-74.04,20000.0,2019-12-10,125.0,
371,20149,beautiful-tiny-home-on-wheels-other,active,Beautiful Tiny Home on wheels,Converted Bus,purchase,1.0,1.0,100.0,Benicia ,California,http://res.cloudinary.com/tinyhouselistings/image/upload/AB5388D2-FFA1-4812-BA28-0ACB6DC16545_jax0vk.jpg,108753,38.05,-122.16,28500.0,2019-12-05,285.0,
372,20098,custom-built-portable-tiny-house,active,Custom Built Portable Tiny House,Tiny House On Wheels,purchase,1.0,1.0,128.0,Lincoln,Nebraska,http://res.cloudinary.com/tinyhouselistings/image/upload/Kitchen_n1xnj7.jpg,108860,40.8,-96.7,24500.0,2019-11-24,191.41,
373,20087,clear-creek-model-beautiful-cozy-elegant,active,"Clear Creek Model-Beautiful, Cozy, Elegant",Tiny House,purchase,1.0,1.0,200.0,Emmett ,Idaho,http://res.cloudinary.com/tinyhouselistings/image/upload/DSC_1641_wenhxm.jpg,20797,43.87,-116.5,59500.0,2019-11-21,297.5,
374,20062,cascade-mpdel,active,Cascade Model,Tiny House,model,1.0,1.0,210.0,Emmett,Idaho,http://res.cloudinary.com/tinyhouselistings/image/upload/IMG_8486_002_c48vao.jpg,20797,43.87,-116.5,45599.0,2019-11-18,217.14,
378,19974,the-hoosic-a-cozy-lofted-tiny-house-on-wheels-we-deliver,active,"The Hoosic: a Cozy, Lofted Tiny House on Wheels (We Deliver!)",Tiny House On Wheels,model,0.0,1.0,170.0,Adams,Massachusetts,http://res.cloudinary.com/tinyhouselistings/image/upload/TanHoosicExt5_vds6zu.jpg,25138,42.62,-73.12,62000.0,2019-11-01,364.71,
